{"VIENNA (Austria)":[{"to":"PRAGUE (Czech Republic)","byTrip":{"origin":{"type":"station","id":"8101003","name":"WIEN HBF (Austria)","location":{"type":"location","longitude":16.375829,"latitude":48.185004}},"destination":{"type":"station","id":"5457076","name":"PRAGUE HLAVNI NADRAZI (Czech Republic)","location":{"type":"location","longitude":14.435274,"latitude":50.081386}},"departure":"2019-06-10T11:10:00.000+02:00","arrival":"2019-06-10T15:07:00.000+02:00","operator":"interrail","mode":"train","public":true,"line":{"type":"line","id":"rj-74","name":"RJ    74","mode":"train","public":true},"id":"8101003-2019-06-10t11-10-00-000-02-00-5457076-2019-06-10t15-07-00-000-02-00-rj-74"}},{"to":"Muenchen City (Germany)","byTrip":{"origin":{"type":"station","id":"8103107","name":"WIEN MEIDLING (Austria)","location":{"type":"location","longitude":16.333058,"latitude":48.174442}},"destination":{"type":"station","id":"8020347","name":"MUENCHEN HBF (Germany)","location":{"type":"location","longitude":11.55833,"latitude":48.140274}},"departure":"2019-06-10T10:37:00.000+02:00","arrival":"2019-06-10T14:57:00.000+02:00","operator":"interrail","mode":"train","public":true,"line":{"type":"line","id":"ec-60","name":"EC    60","mode":"train","public":true},"id":"8103107-2019-06-10t10-37-00-000-02-00-8020347-2019-06-10t14-57-00-000-02-00-ec-60"}},{"to":"HAMBURG (Germany)","byTrip":{"origin":{"type":"station","id":"8103107","name":"WIEN MEIDLING (Austria)","location":{"type":"location","longitude":16.333058,"latitude":48.174442}},"destination":{"type":"station","id":"8001071","name":"HAMBURG HBF (Germany)","location":{"type":"location","longitude":10.006945,"latitude":53.552778}},"departure":"2019-06-10T13:22:00.000+02:00","arrival":"2019-06-10T21:53:00.000+02:00","operator":"interrail","mode":"train","public":true,"line":{"type":"line","id":"ice-90","name":"ICE   90","mode":"train","public":true},"id":"8103107-2019-06-10t13-22-00-000-02-00-8001071-2019-06-10t21-53-00-000-02-00-ice-90"}},{"to":"BUDAPEST (Hungary)","byTrip":{"origin":{"type":"station","id":"8101003","name":"WIEN HBF (Austria)","location":{"type":"location","longitude":16.375829,"latitude":48.185004}},"destination":{"type":"station","id":"5501024","name":"BUDAPEST-KELENFOELD (Hungary)","location":{"type":"location","longitude":19.019997,"latitude":47.464447}},"departure":"2019-06-10T11:40:00.000+02:00","arrival":"2019-06-10T14:02:00.000+02:00","operator":"interrail","mode":"train","public":true,"line":{"type":"line","id":"ec-61","name":"EC    61","mode":"train","public":true},"id":"8101003-2019-06-10t11-40-00-000-02-00-5501024-2019-06-10t14-02-00-000-02-00-ec-61"}},{"to":"Rome Termini (Italy)","byTrip":{"origin":{"type":"station","id":"8103107","name":"WIEN MEIDLING (Austria)","location":{"type":"location","longitude":16.333058,"latitude":48.174442}},"destination":{"type":"station","id":"8308409","name":"ROMA TERMINI (Italy)","location":{"type":"location","longitude":12.501667,"latitude":41.900555}},"departure":"2019-06-10T19:31:00.000+02:00","arrival":"2019-06-11T09:22:00.000+02:00","operator":"interrail","mode":"train","public":true,"line":{"type":"line","id":"nj-40233","name":"NJ 40233","mode":"train","public":true},"id":"8103107-2019-06-10t19-31-00-000-02-00-8308409-2019-06-11t09-22-00-000-02-00-nj-40233"}},{"to":"MILANO CITY (Italy)","byTrip":{"origin":{"type":"station","id":"8103107","name":"WIEN MEIDLING (Austria)","location":{"type":"location","longitude":16.333058,"latitude":48.174442}},"destination":{"type":"station","id":"8301701","name":"MILANO LAMBRATE (Italy)","location":{"type":"location","longitude":9.236947,"latitude":45.484725}},"departure":"2019-06-10T19:31:00.000+02:00","arrival":"2019-06-11T08:59:00.000+02:00","operator":"interrail","mode":"train","public":true,"line":{"type":"line","id":"nj-233","name":"NJ   233","mode":"train","public":true},"id":"8103107-2019-06-10t19-31-00-000-02-00-8301701-2019-06-11t08-59-00-000-02-00-nj-233"}},{"to":"WARSZAWA (Poland)","byTrip":{"origin":{"type":"station","id":"8101003","name":"WIEN HBF (Austria)","location":{"type":"location","longitude":16.375829,"latitude":48.185004}},"destination":{"type":"station","id":"5103360","name":"WARSZAWA CENTRALNA (Poland)","location":{"type":"location","longitude":21.002775,"latitude":52.228613}},"departure":"2019-06-10T14:10:00.000+02:00","arrival":"2019-06-10T21:08:00.000+02:00","operator":"interrail","mode":"train","public":true,"line":{"type":"line","id":"ec-102","name":"EC   102","mode":"train","public":true},"id":"8101003-2019-06-10t14-10-00-000-02-00-5103360-2019-06-10t21-08-00-000-02-00-ec-102"}},{"to":"BUCHAREST (Romania)","byTrip":{"origin":{"type":"station","id":"8101003","name":"WIEN HBF (Austria)","location":{"type":"location","longitude":16.375829,"latitude":48.185004}},"destination":{"type":"station","id":"5310017","name":"BUCURESTI NORD (Romania)","location":{"type":"location","longitude":26.074165,"latitude":44.44639}},"departure":"2019-06-10T19:42:00.000+02:00","arrival":"2019-06-11T16:06:00.000+02:00","operator":"interrail","mode":"train","public":true,"line":{"type":"line","id":"nt-347","name":"NT   347","mode":"train","public":true},"id":"8101003-2019-06-10t19-42-00-000-02-00-5310017-2019-06-11t16-06-00-000-02-00-nt-347"}},{"to":"KIEV-PASSAJIRSKII (Ukraine)","byTrip":{"origin":{"type":"station","id":"8101003","name":"WIEN HBF (Austria)","location":{"type":"location","longitude":16.375829,"latitude":48.185004}},"destination":{"type":"station","id":"2232030","name":"KIEV-PASSAJIRSKII (Ukraine)","location":{"type":"location","longitude":30.513973,"latitude":50.434357}},"departure":"2019-06-10T16:42:00.000+02:00","arrival":"2019-06-11T17:14:00.000+02:00","operator":"interrail","mode":"train","public":true,"line":{"type":"line","id":"ft-40147","name":"FT 40147","mode":"train","public":true},"id":"8101003-2019-06-10t16-42-00-000-02-00-2232030-2019-06-11t17-14-00-000-02-00-ft-40147"}},{"to":"KOELN (Germany)","byTrip":{"origin":{"type":"station","id":"8103107","name":"WIEN MEIDLING (Austria)","location":{"type":"location","longitude":16.333058,"latitude":48.174442}},"destination":{"type":"station","id":"8015458","name":"KOELN HBF (Germany)","location":{"type":"location","longitude":6.958613,"latitude":50.943056}},"departure":"2019-06-10T11:22:00.000+02:00","arrival":"2019-06-10T20:05:00.000+02:00","operator":"interrail","mode":"train","public":true,"line":{"type":"line","id":"ice-26","name":"ICE   26","mode":"train","public":true},"id":"8103107-2019-06-10t11-22-00-000-02-00-8015458-2019-06-10t20-05-00-000-02-00-ice-26"}},{"to":"HANNOVER HBF (Germany)","byTrip":{"origin":{"type":"station","id":"8103107","name":"WIEN MEIDLING (Austria)","location":{"type":"location","longitude":16.333058,"latitude":48.174442}},"destination":{"type":"station","id":"8013552","name":"HANNOVER HBF (Germany)","location":{"type":"location","longitude":9.741107,"latitude":52.376665}},"departure":"2019-06-10T13:22:00.000+02:00","arrival":"2019-06-10T20:32:00.000+02:00","operator":"interrail","mode":"train","public":true,"line":{"type":"line","id":"ice-90","name":"ICE   90","mode":"train","public":true},"id":"8103107-2019-06-10t13-22-00-000-02-00-8013552-2019-06-10t20-32-00-000-02-00-ice-90"}},{"to":"FRANKFURT AM MAIN FLUGHAFEN FERNBAHNHOF (Germany)","byTrip":{"origin":{"type":"station","id":"8103107","name":"WIEN MEIDLING (Austria)","location":{"type":"location","longitude":16.333058,"latitude":48.174442}},"destination":{"type":"station","id":"8061676","name":"FRANKFURT(M) FLUGHAFEN FERNBF (Germany)","location":{"type":"location","longitude":8.57028,"latitude":50.053052}},"departure":"2019-06-10T11:22:00.000+02:00","arrival":"2019-06-10T17:55:00.000+02:00","operator":"interrail","mode":"train","public":true,"line":{"type":"line","id":"ice-26","name":"ICE   26","mode":"train","public":true},"id":"8103107-2019-06-10t11-22-00-000-02-00-8061676-2019-06-10t17-55-00-000-02-00-ice-26"}},{"to":"ESSEN HBF (Germany)","byTrip":{"origin":{"type":"station","id":"8103107","name":"WIEN MEIDLING (Austria)","location":{"type":"location","longitude":16.333058,"latitude":48.174442}},"destination":{"type":"station","id":"8010184","name":"ESSEN HBF (Germany)","location":{"type":"location","longitude":7.014723,"latitude":51.451387}},"departure":"2019-06-10T15:22:00.000+02:00","arrival":"2019-06-11T00:56:00.000+02:00","operator":"interrail","mode":"train","public":true,"line":{"type":"line","id":"ice-22","name":"ICE   22","mode":"train","public":true},"id":"8103107-2019-06-10t15-22-00-000-02-00-8010184-2019-06-11t00-56-00-000-02-00-ice-22"}},{"to":"DUESSELDORF HBF (Germany)","byTrip":{"origin":{"type":"station","id":"8103107","name":"WIEN MEIDLING (Austria)","location":{"type":"location","longitude":16.333058,"latitude":48.174442}},"destination":{"type":"station","id":"8008094","name":"DUESSELDORF HBF (Germany)","location":{"type":"location","longitude":6.794443,"latitude":51.219996}},"departure":"2019-06-10T15:22:00.000+02:00","arrival":"2019-06-11T00:30:00.000+02:00","operator":"interrail","mode":"train","public":true,"line":{"type":"line","id":"ice-22","name":"ICE   22","mode":"train","public":true},"id":"8103107-2019-06-10t15-22-00-000-02-00-8008094-2019-06-11t00-30-00-000-02-00-ice-22"}},{"to":"DUISBURG HBF (Germany)","byTrip":{"origin":{"type":"station","id":"8103107","name":"WIEN MEIDLING (Austria)","location":{"type":"location","longitude":16.333058,"latitude":48.174442}},"destination":{"type":"station","id":"8010316","name":"DUISBURG HBF (Germany)","location":{"type":"location","longitude":6.775835,"latitude":51.429723}},"departure":"2019-06-10T15:22:00.000+02:00","arrival":"2019-06-11T00:44:00.000+02:00","operator":"interrail","mode":"train","public":true,"line":{"type":"line","id":"ice-22","name":"ICE   22","mode":"train","public":true},"id":"8103107-2019-06-10t15-22-00-000-02-00-8010316-2019-06-11t00-44-00-000-02-00-ice-22"}},{"to":"DORTMUND HBF (Germany)","byTrip":{"origin":{"type":"station","id":"8103107","name":"WIEN MEIDLING (Austria)","location":{"type":"location","longitude":16.333058,"latitude":48.174442}},"destination":{"type":"station","id":"8010053","name":"DORTMUND HBF (Germany)","location":{"type":"location","longitude":7.459168,"latitude":51.517782}},"departure":"2019-06-10T11:22:00.000+02:00","arrival":"2019-06-10T21:20:00.000+02:00","operator":"interrail","mode":"train","public":true,"line":{"type":"line","id":"ice-26","name":"ICE   26","mode":"train","public":true},"id":"8103107-2019-06-10t11-22-00-000-02-00-8010053-2019-06-10t21-20-00-000-02-00-ice-26"}},{"to":"ZAGREB GLAVNI KOL. (Croatia)","byTrip":{"origin":{"type":"station","id":"8103107","name":"WIEN MEIDLING (Austria)","location":{"type":"location","longitude":16.333058,"latitude":48.174442}},"destination":{"type":"station","id":"7872480","name":"ZAGREB GLAVNI KOL. (Croatia)","location":{"type":"location","longitude":15.978892,"latitude":45.804445}},"departure":"2019-06-10T16:05:00.000+02:00","arrival":"2019-06-10T22:41:00.000+02:00","operator":"interrail","mode":"train","public":true,"line":{"type":"line","id":"ec-1259","name":"EC  1259","mode":"train","public":true},"id":"8103107-2019-06-10t16-05-00-000-02-00-7872480-2019-06-10t22-41-00-000-02-00-ec-1259"}},{"to":"KRAKOW GLOWNY (Poland)","byTrip":{"origin":{"type":"station","id":"8101003","name":"WIEN HBF (Austria)","location":{"type":"location","longitude":16.375829,"latitude":48.185004}},"destination":{"type":"station","id":"5108041","name":"KRAKOW GLOWNY (Poland)","location":{"type":"location","longitude":19.947774,"latitude":50.065835}},"departure":"2019-06-10T22:10:00.000+02:00","arrival":"2019-06-11T06:15:00.000+02:00","operator":"interrail","mode":"train","public":true,"line":{"type":"line","id":"en-40456","name":"EN 40456","mode":"train","public":true},"id":"8101003-2019-06-10t22-10-00-000-02-00-5108041-2019-06-11t06-15-00-000-02-00-en-40456"}},{"to":"NUERNBERG (Germany)","byTrip":{"origin":{"type":"station","id":"8103107","name":"WIEN MEIDLING (Austria)","location":{"type":"location","longitude":16.333058,"latitude":48.174442}},"destination":{"type":"station","id":"8022193","name":"NUERNBERG HBF (Germany)","location":{"type":"location","longitude":11.083052,"latitude":49.445552}},"departure":"2019-06-10T11:22:00.000+02:00","arrival":"2019-06-10T15:27:00.000+02:00","operator":"interrail","mode":"train","public":true,"line":{"type":"line","id":"ice-26","name":"ICE   26","mode":"train","public":true},"id":"8103107-2019-06-10t11-22-00-000-02-00-8022193-2019-06-10t15-27-00-000-02-00-ice-26"}},{"to":"BRATISLAVA (Slovakia)","byTrip":{"origin":{"type":"station","id":"8101003","name":"WIEN HBF (Austria)","location":{"type":"location","longitude":16.375829,"latitude":48.185004}},"destination":{"type":"station","id":"5614576","name":"BRATISLAVA-PETRZALKA (Slovakia)","location":{"type":"location","longitude":17.098885,"latitude":48.12083}},"departure":"2019-06-10T10:45:00.000+02:00","arrival":"2019-06-10T11:44:00.000+02:00","operator":"interrail","mode":"train","public":true,"line":{"type":"line","id":"re-7619","name":"RE  7619","mode":"train","public":true},"id":"8101003-2019-06-10t10-45-00-000-02-00-5614576-2019-06-10t11-44-00-000-02-00-re-7619"}},{"to":"BOCHUM HBF (Germany)","byTrip":{"origin":{"type":"station","id":"8103107","name":"WIEN MEIDLING (Austria)","location":{"type":"location","longitude":16.333058,"latitude":48.174442}},"destination":{"type":"station","id":"8010179","name":"BOCHUM HBF (Germany)","location":{"type":"location","longitude":7.223336,"latitude":51.478607}},"departure":"2019-06-10T15:22:00.000+02:00","arrival":"2019-06-11T01:07:00.000+02:00","operator":"interrail","mode":"train","public":true,"line":{"type":"line","id":"ice-22","name":"ICE   22","mode":"train","public":true},"id":"8103107-2019-06-10t15-22-00-000-02-00-8010179-2019-06-11t01-07-00-000-02-00-ice-22"}},{"to":"BRNO DOLNI NADRAZI (Czech Republic)","byTrip":{"origin":{"type":"station","id":"8101003","name":"WIEN HBF (Austria)","location":{"type":"location","longitude":16.375829,"latitude":48.185004}},"destination":{"type":"station","id":"5438015","name":"BRNO DOLNI NADRAZI (Czech Republic)","location":{"type":"location","longitude":16.616111,"latitude":49.18278}},"departure":"2019-06-10T11:10:00.000+02:00","arrival":"2019-06-10T12:35:00.000+02:00","operator":"interrail","mode":"train","public":true,"line":{"type":"line","id":"rj-74","name":"RJ    74","mode":"train","public":true},"id":"8101003-2019-06-10t11-10-00-000-02-00-5438015-2019-06-10t12-35-00-000-02-00-rj-74"}},{"to":"WUPPERTAL HBF (Germany)","byTrip":{"origin":{"type":"station","id":"8103107","name":"WIEN MEIDLING (Austria)","location":{"type":"location","longitude":16.333058,"latitude":48.174442}},"destination":{"type":"station","id":"8008143","name":"WUPPERTAL HBF (Germany)","location":{"type":"location","longitude":7.149445,"latitude":51.254443}},"departure":"2019-06-10T11:22:00.000+02:00","arrival":"2019-06-10T20:41:00.000+02:00","operator":"interrail","mode":"train","public":true,"line":{"type":"line","id":"ice-26","name":"ICE   26","mode":"train","public":true},"id":"8103107-2019-06-10t11-22-00-000-02-00-8008143-2019-06-10t20-41-00-000-02-00-ice-26"}},{"to":"FIRENZE CITY (Italy)","byTrip":{"origin":{"type":"station","id":"8103107","name":"WIEN MEIDLING (Austria)","location":{"type":"location","longitude":16.333058,"latitude":48.174442}},"destination":{"type":"station","id":"8306421","name":"FIRENZE S.M.N. (Italy)","location":{"type":"location","longitude":11.247501,"latitude":43.776667}},"departure":"2019-06-10T19:31:00.000+02:00","arrival":"2019-06-11T06:14:00.000+02:00","operator":"interrail","mode":"train","public":true,"line":{"type":"line","id":"nj-40233","name":"NJ 40233","mode":"train","public":true},"id":"8103107-2019-06-10t19-31-00-000-02-00-8306421-2019-06-11t06-14-00-000-02-00-nj-40233"}},{"to":"BOLOGNA CITY (Italy)","byTrip":{"origin":{"type":"station","id":"8103107","name":"WIEN MEIDLING (Austria)","location":{"type":"location","longitude":16.333058,"latitude":48.174442}},"destination":{"type":"station","id":"8305043","name":"BOLOGNA CENTRALE (Italy)","location":{"type":"location","longitude":11.341942,"latitude":44.506393}},"departure":"2019-06-10T19:31:00.000+02:00","arrival":"2019-06-11T05:17:00.000+02:00","operator":"interrail","mode":"train","public":true,"line":{"type":"line","id":"nj-40233","name":"NJ 40233","mode":"train","public":true},"id":"8103107-2019-06-10t19-31-00-000-02-00-8305043-2019-06-11t05-17-00-000-02-00-nj-40233"}},{"to":"VENEZIA CITY (Italy)","byTrip":{"origin":{"type":"station","id":"8103107","name":"WIEN MEIDLING (Austria)","location":{"type":"location","longitude":16.333058,"latitude":48.174442}},"destination":{"type":"station","id":"8302589","name":"VENEZIA MESTRE (Italy)","location":{"type":"location","longitude":12.231667,"latitude":45.481948}},"departure":"2019-06-10T12:32:00.000+02:00","arrival":"2019-06-10T19:53:00.000+02:00","operator":"interrail","mode":"train","public":true,"line":{"type":"line","id":"rj-133","name":"RJ   133","mode":"train","public":true},"id":"8103107-2019-06-10t12-32-00-000-02-00-8302589-2019-06-10t19-53-00-000-02-00-rj-133"}},{"to":"BRASOV (Romania)","byTrip":{"origin":{"type":"station","id":"8101003","name":"WIEN HBF (Austria)","location":{"type":"location","longitude":16.375829,"latitude":48.185004}},"destination":{"type":"station","id":"5330691","name":"BRASOV (Romania)","location":{"type":"location","longitude":25.613612,"latitude":45.661948}},"departure":"2019-06-10T19:42:00.000+02:00","arrival":"2019-06-11T13:32:00.000+02:00","operator":"interrail","mode":"train","public":true,"line":{"type":"line","id":"nt-347","name":"NT   347","mode":"train","public":true},"id":"8101003-2019-06-10t19-42-00-000-02-00-5330691-2019-06-11t13-32-00-000-02-00-nt-347"}},{"to":"STUTTGART HBF (Germany)","byTrip":[{"origin":{"type":"station","id":"8103107","name":"WIEN MEIDLING (Austria)","location":{"type":"location","longitude":16.333058,"latitude":48.174442}},"destination":{"type":"station","id":"8020347","name":"MUENCHEN HBF (Germany)","location":{"type":"location","longitude":11.55833,"latitude":48.140274}},"departure":"2019-06-10T10:37:00.000+02:00","arrival":"2019-06-10T14:57:00.000+02:00","operator":"interrail","mode":"train","public":true,"line":{"type":"line","id":"ec-60","name":"EC    60","mode":"train","public":true},"id":"8103107-2019-06-10t10-37-00-000-02-00-8020347-2019-06-10t14-57-00-000-02-00-ec-60"},{"origin":{"type":"station","id":"8020347","name":"MUENCHEN HBF (Germany)","location":{"type":"location","longitude":11.55833,"latitude":48.140274}},"destination":{"type":"station","id":"8029034","name":"STUTTGART HBF (Germany)","location":{"type":"location","longitude":9.181663,"latitude":48.784171}},"departure":"2019-06-10T15:28:00.000+02:00","arrival":"2019-06-10T17:45:00.000+02:00","operator":"interrail","mode":"train","public":true,"line":{"type":"line","id":"ice-1212","name":"ICE 1212","mode":"train","public":true},"id":"8020347-2019-06-10t15-28-00-000-02-00-8029034-2019-06-10t17-45-00-000-02-00-ice-1212"}]},{"to":"LEIPZIG HBF (Germany)","byTrip":[{"origin":{"type":"station","id":"8103107","name":"WIEN MEIDLING (Austria)","location":{"type":"location","longitude":16.333058,"latitude":48.174442}},"destination":{"type":"station","id":"8022193","name":"NUERNBERG HBF (Germany)","location":{"type":"location","longitude":11.083052,"latitude":49.445552}},"departure":"2019-06-10T11:22:00.000+02:00","arrival":"2019-06-10T15:27:00.000+02:00","operator":"interrail","mode":"train","public":true,"line":{"type":"line","id":"ice-26","name":"ICE   26","mode":"train","public":true},"id":"8103107-2019-06-10t11-22-00-000-02-00-8022193-2019-06-10t15-27-00-000-02-00-ice-26"},{"origin":{"type":"station","id":"8022193","name":"NUERNBERG HBF (Germany)","location":{"type":"location","longitude":11.083052,"latitude":49.445552}},"destination":{"type":"station","id":"8023179","name":"LEIPZIG HBF (Germany)","location":{"type":"location","longitude":12.38194,"latitude":51.345557}},"departure":"2019-06-10T16:04:00.000+02:00","arrival":"2019-06-10T18:10:00.000+02:00","operator":"interrail","mode":"train","public":true,"line":{"type":"line","id":"ice-504","name":"ICE  504","mode":"train","public":true},"id":"8022193-2019-06-10t16-04-00-000-02-00-8023179-2019-06-10t18-10-00-000-02-00-ice-504"}]},{"to":"BREMEN HBF (Germany)","byTrip":[{"origin":{"type":"station","id":"8103107","name":"WIEN MEIDLING (Austria)","location":{"type":"location","longitude":16.333058,"latitude":48.174442}},"destination":{"type":"station","id":"8013552","name":"HANNOVER HBF (Germany)","location":{"type":"location","longitude":9.741107,"latitude":52.376665}},"departure":"2019-06-10T13:22:00.000+02:00","arrival":"2019-06-10T20:32:00.000+02:00","operator":"interrail","mode":"train","public":true,"line":{"type":"line","id":"ice-90","name":"ICE   90","mode":"train","public":true},"id":"8103107-2019-06-10t13-22-00-000-02-00-8013552-2019-06-10t20-32-00-000-02-00-ice-90"},{"origin":{"type":"station","id":"8013552","name":"HANNOVER HBF (Germany)","location":{"type":"location","longitude":9.741107,"latitude":52.376665}},"destination":{"type":"station","id":"8013751","name":"BREMEN HBF (Germany)","location":{"type":"location","longitude":8.813887,"latitude":53.083613}},"departure":"2019-06-10T20:45:00.000+02:00","arrival":"2019-06-10T21:50:00.000+02:00","operator":"interrail","mode":"train","public":true,"line":{"type":"line","id":"ic-2032","name":"IC  2032","mode":"train","public":true},"id":"8013552-2019-06-10t20-45-00-000-02-00-8013751-2019-06-10t21-50-00-000-02-00-ic-2032"}]},{"to":"BERLIN (Germany)","byTrip":[{"origin":{"type":"station","id":"8103107","name":"WIEN MEIDLING (Austria)","location":{"type":"location","longitude":16.333058,"latitude":48.174442}},"destination":{"type":"station","id":"8022193","name":"NUERNBERG HBF (Germany)","location":{"type":"location","longitude":11.083052,"latitude":49.445552}},"departure":"2019-06-10T11:22:00.000+02:00","arrival":"2019-06-10T15:27:00.000+02:00","operator":"interrail","mode":"train","public":true,"line":{"type":"line","id":"ice-26","name":"ICE   26","mode":"train","public":true},"id":"8103107-2019-06-10t11-22-00-000-02-00-8022193-2019-06-10t15-27-00-000-02-00-ice-26"},{"origin":{"type":"station","id":"8022193","name":"NUERNBERG HBF (Germany)","location":{"type":"location","longitude":11.083052,"latitude":49.445552}},"destination":{"type":"station","id":"8065971","name":"BERLIN SUEDKREUZ (Germany)","location":{"type":"location","longitude":13.365279,"latitude":52.474998}},"departure":"2019-06-10T16:04:00.000+02:00","arrival":"2019-06-10T19:22:00.000+02:00","operator":"interrail","mode":"train","public":true,"line":{"type":"line","id":"ice-504","name":"ICE  504","mode":"train","public":true},"id":"8022193-2019-06-10t16-04-00-000-02-00-8065971-2019-06-10t19-22-00-000-02-00-ice-504"}]},{"to":"Copenhagen (Denmark)","byTrip":[{"origin":{"type":"station","id":"8103107","name":"WIEN MEIDLING (Austria)","location":{"type":"location","longitude":16.333058,"latitude":48.174442}},"destination":{"type":"station","id":"8001071","name":"HAMBURG HBF (Germany)","location":{"type":"location","longitude":10.006945,"latitude":53.552778}},"departure":"2019-06-10T13:22:00.000+02:00","arrival":"2019-06-10T21:53:00.000+02:00","operator":"interrail","mode":"train","public":true,"line":{"type":"line","id":"ice-90","name":"ICE   90","mode":"train","public":true},"id":"8103107-2019-06-10t13-22-00-000-02-00-8001071-2019-06-10t21-53-00-000-02-00-ice-90"},{"origin":{"type":"station","id":"8001071","name":"HAMBURG HBF (Germany)","location":{"type":"location","longitude":10.006945,"latitude":53.552778}},"destination":{"type":"station","id":"8600626","name":"Koebenhavn H (Denmark)","location":{"type":"location","longitude":12.565553,"latitude":55.673054}},"departure":"2019-06-10T23:42:00.000+02:00","arrival":"2019-06-11T06:53:00.000+02:00","operator":"interrail","mode":"train","public":true,"line":{"type":"line","id":"ic-431","name":"IC   431","mode":"train","public":true},"id":"8001071-2019-06-10t23-42-00-000-02-00-8600626-2019-06-11t06-53-00-000-02-00-ic-431"}]},{"to":"PARIS (France)","byTrip":[{"origin":{"type":"station","id":"8103107","name":"WIEN MEIDLING (Austria)","location":{"type":"location","longitude":16.333058,"latitude":48.174442}},"destination":{"type":"station","id":"8011068","name":"FRANKFURT(MAIN)HBF (Germany)","location":{"type":"location","longitude":8.663893,"latitude":50.107221}},"departure":"2019-06-10T11:22:00.000+02:00","arrival":"2019-06-10T17:36:00.000+02:00","operator":"interrail","mode":"train","public":true,"line":{"type":"line","id":"ice-26","name":"ICE   26","mode":"train","public":true},"id":"8103107-2019-06-10t11-22-00-000-02-00-8011068-2019-06-10t17-36-00-000-02-00-ice-26"},{"origin":{"type":"station","id":"8011068","name":"FRANKFURT(MAIN)HBF (Germany)","location":{"type":"location","longitude":8.663893,"latitude":50.107221}},"destination":{"type":"station","id":"8711300","name":"PARIS EST (France)","location":{"type":"location","longitude":2.358886,"latitude":48.877497}},"departure":"2019-06-10T18:58:00.000+02:00","arrival":"2019-06-10T22:52:00.000+02:00","operator":"interrail","mode":"train","public":true,"line":{"type":"line","id":"ice-9550","name":"ICE 9550","mode":"train","public":true},"id":"8011068-2019-06-10t18-58-00-000-02-00-8711300-2019-06-10t22-52-00-000-02-00-ice-9550"}]},{"to":"TURIN (Italy)","byTrip":[{"origin":{"type":"station","id":"8103107","name":"WIEN MEIDLING (Austria)","location":{"type":"location","longitude":16.333058,"latitude":48.174442}},"destination":{"type":"station","id":"8305043","name":"BOLOGNA CENTRALE (Italy)","location":{"type":"location","longitude":11.341942,"latitude":44.506393}},"departure":"2019-06-10T19:31:00.000+02:00","arrival":"2019-06-11T05:17:00.000+02:00","operator":"interrail","mode":"train","public":true,"line":{"type":"line","id":"nj-40233","name":"NJ 40233","mode":"train","public":true},"id":"8103107-2019-06-10t19-31-00-000-02-00-8305043-2019-06-11t05-17-00-000-02-00-nj-40233"},{"origin":{"type":"station","id":"8305043","name":"BOLOGNA CENTRALE (Italy)","location":{"type":"location","longitude":11.341942,"latitude":44.506393}},"destination":{"type":"station","id":"8300035","name":"TORINO PORTA SUSA (Italy)","location":{"type":"location","longitude":7.666945,"latitude":45.07417}},"departure":"2019-06-11T07:21:00.000+02:00","arrival":"2019-06-11T09:44:00.000+02:00","operator":"interrail","mode":"train","public":true,"line":{"type":"line","id":"fr-9500","name":"FR  9500","mode":"train","public":true},"id":"8305043-2019-06-11t07-21-00-000-02-00-8300035-2019-06-11t09-44-00-000-02-00-fr-9500"}]},{"to":"VOLCHINEC (Moldova)","byTrip":[{"origin":{"type":"station","id":"8101003","name":"WIEN HBF (Austria)","location":{"type":"location","longitude":16.375829,"latitude":48.185004}},"destination":{"type":"station","id":"2232030","name":"KIEV-PASSAJIRSKII (Ukraine)","location":{"type":"location","longitude":30.513973,"latitude":50.434357}},"departure":"2019-06-10T16:42:00.000+02:00","arrival":"2019-06-11T17:14:00.000+02:00","operator":"interrail","mode":"train","public":true,"line":{"type":"line","id":"ft-40147","name":"FT 40147","mode":"train","public":true},"id":"8101003-2019-06-10t16-42-00-000-02-00-2232030-2019-06-11t17-14-00-000-02-00-ft-40147"},{"origin":{"type":"station","id":"2232030","name":"KIEV-PASSAJIRSKII (Ukraine)","location":{"type":"location","longitude":30.513973,"latitude":50.434357}},"destination":{"type":"station","id":"2339430","name":"VOLCHINEC (Moldova)","location":{"type":"location","longitude":28.156678,"latitude":48.553013}},"departure":"2019-06-11T23:51:00.000+02:00","arrival":"2019-06-12T08:23:00.000+02:00","operator":"interrail","mode":"train","public":true,"line":{"type":"line","id":"ir-341mz","name":"IR 341MZ","mode":"train","public":true},"id":"2232030-2019-06-11t23-51-00-000-02-00-2339430-2019-06-12t08-23-00-000-02-00-ir-341mz"}]},{"to":"LODZ (Poland)","byTrip":[{"origin":{"type":"station","id":"8101003","name":"WIEN HBF (Austria)","location":{"type":"location","longitude":16.375829,"latitude":48.185004}},"destination":{"type":"station","id":"5103350","name":"WARSZAWA ZACHODNIA (Poland)","location":{"type":"location","longitude":20.965281,"latitude":52.220001}},"departure":"2019-06-10T14:10:00.000+02:00","arrival":"2019-06-10T21:03:00.000+02:00","operator":"interrail","mode":"train","public":true,"line":{"type":"line","id":"ec-102","name":"EC   102","mode":"train","public":true},"id":"8101003-2019-06-10t14-10-00-000-02-00-5103350-2019-06-10t21-03-00-000-02-00-ec-102"},{"origin":{"type":"station","id":"5103350","name":"WARSZAWA ZACHODNIA (Poland)","location":{"type":"location","longitude":20.965281,"latitude":52.220001}},"destination":{"type":"station","id":"5104640","name":"LODZ WIDZEW (Poland)","location":{"type":"location","longitude":19.543331,"latitude":51.763052}},"departure":"2019-06-10T21:25:00.000+02:00","arrival":"2019-06-10T22:29:00.000+02:00","operator":"interrail","mode":"train","public":true,"line":{"type":"line","id":"ic-1002","name":"IC  1002","mode":"train","public":true},"id":"5103350-2019-06-10t21-25-00-000-02-00-5104640-2019-06-10t22-29-00-000-02-00-ic-1002"}]}],"PRAGUE (Czech Republic)":[{"to":"VIENNA (Austria)","byTrip":{"origin":{"type":"station","id":"8101003","name":"WIEN HBF (Austria)","location":{"type":"location","longitude":16.375829,"latitude":48.185004}},"destination":{"type":"station","id":"5457076","name":"PRAGUE HLAVNI NADRAZI (Czech Republic)","location":{"type":"location","longitude":14.435274,"latitude":50.081386}},"departure":"2019-06-10T11:10:00.000+02:00","arrival":"2019-06-10T15:07:00.000+02:00","operator":"interrail","mode":"train","public":true,"line":{"type":"line","id":"rj-74","name":"RJ    74","mode":"train","public":true},"id":"8101003-2019-06-10t11-10-00-000-02-00-5457076-2019-06-10t15-07-00-000-02-00-rj-74"}},{"to":"BERLIN (Germany)","byTrip":{"origin":{"type":"station","id":"5457076","name":"PRAGUE HLAVNI NADRAZI (Czech Republic)","location":{"type":"location","longitude":14.435274,"latitude":50.081386}},"destination":{"type":"station","id":"8065971","name":"BERLIN SUEDKREUZ (Germany)","location":{"type":"location","longitude":13.365279,"latitude":52.474998}},"departure":"2019-06-10T10:32:00.000+02:00","arrival":"2019-06-10T14:36:00.000+02:00","operator":"interrail","mode":"train","public":true,"line":{"type":"line","id":"ec-174","name":"EC   174","mode":"train","public":true},"id":"5457076-2019-06-10t10-32-00-000-02-00-8065971-2019-06-10t14-36-00-000-02-00-ec-174"}},{"to":"BUDAPEST (Hungary)","byTrip":{"origin":{"type":"station","id":"5457076","name":"PRAGUE HLAVNI NADRAZI (Czech Republic)","location":{"type":"location","longitude":14.435274,"latitude":50.081386}},"destination":{"type":"station","id":"5510033","name":"BUDAPEST-NYUGATI (Hungary)","location":{"type":"location","longitude":19.057437,"latitude":47.510678}},"departure":"2019-06-10T11:50:00.000+02:00","arrival":"2019-06-10T18:20:00.000+02:00","operator":"interrail","mode":"train","public":true,"line":{"type":"line","id":"ec-279","name":"EC   279","mode":"train","public":true},"id":"5457076-2019-06-10t11-50-00-000-02-00-5510033-2019-06-10t18-20-00-000-02-00-ec-279"}},{"to":"WARSZAWA (Poland)","byTrip":{"origin":{"type":"station","id":"5457076","name":"PRAGUE HLAVNI NADRAZI (Czech Republic)","location":{"type":"location","longitude":14.435274,"latitude":50.081386}},"destination":{"type":"station","id":"5103360","name":"WARSZAWA CENTRALNA (Poland)","location":{"type":"location","longitude":21.002775,"latitude":52.228613}},"departure":"2019-06-10T14:24:00.000+02:00","arrival":"2019-06-10T22:35:00.000+02:00","operator":"interrail","mode":"train","public":true,"line":{"type":"line","id":"ec-117","name":"EC   117","mode":"train","public":true},"id":"5457076-2019-06-10t14-24-00-000-02-00-5103360-2019-06-10t22-35-00-000-02-00-ec-117"}},{"to":"NUERNBERG (Germany)","byTrip":{"origin":{"type":"station","id":"5457077","name":"PRAGUE DB-BUS (Czech Republic)","location":{"type":"location","longitude":14.435004,"latitude":50.083337}},"destination":{"type":"station","id":"8012968","name":"NUERNBERG ZOB (Germany)","location":{"type":"location","longitude":11.08556,"latitude":49.447782}},"departure":"2019-06-10T11:35:00.000+02:00","arrival":"2019-06-10T15:10:00.000+02:00","operator":"interrail","mode":"bus","public":true,"line":{"type":"line","id":"bus42011","name":"BUS42011","mode":"bus","public":true},"id":"5457077-2019-06-10t11-35-00-000-02-00-8012968-2019-06-10t15-10-00-000-02-00-bus42011"}},{"to":"DRESDEN HBF (Germany)","byTrip":{"origin":{"type":"station","id":"5457076","name":"PRAGUE HLAVNI NADRAZI (Czech Republic)","location":{"type":"location","longitude":14.435274,"latitude":50.081386}},"destination":{"type":"station","id":"8006050","name":"DRESDEN HBF (Germany)","location":{"type":"location","longitude":13.73194,"latitude":51.040553}},"departure":"2019-06-10T10:32:00.000+02:00","arrival":"2019-06-10T12:43:00.000+02:00","operator":"interrail","mode":"train","public":true,"line":{"type":"line","id":"ec-174","name":"EC   174","mode":"train","public":true},"id":"5457076-2019-06-10t10-32-00-000-02-00-8006050-2019-06-10t12-43-00-000-02-00-ec-174"}},{"to":"LEIPZIG HBF (Germany)","byTrip":[{"origin":{"type":"station","id":"5457076","name":"PRAGUE HLAVNI NADRAZI (Czech Republic)","location":{"type":"location","longitude":14.435274,"latitude":50.081386}},"destination":{"type":"station","id":"8006050","name":"DRESDEN HBF (Germany)","location":{"type":"location","longitude":13.73194,"latitude":51.040553}},"departure":"2019-06-10T10:32:00.000+02:00","arrival":"2019-06-10T12:43:00.000+02:00","operator":"interrail","mode":"train","public":true,"line":{"type":"line","id":"ec-174","name":"EC   174","mode":"train","public":true},"id":"5457076-2019-06-10t10-32-00-000-02-00-8006050-2019-06-10t12-43-00-000-02-00-ec-174"},{"origin":{"type":"station","id":"8006050","name":"DRESDEN HBF (Germany)","location":{"type":"location","longitude":13.73194,"latitude":51.040553}},"destination":{"type":"station","id":"8023179","name":"LEIPZIG HBF (Germany)","location":{"type":"location","longitude":12.38194,"latitude":51.345557}},"departure":"2019-06-10T13:10:00.000+02:00","arrival":"2019-06-10T14:19:00.000+02:00","operator":"interrail","mode":"train","public":true,"line":{"type":"line","id":"ic-2442","name":"IC  2442","mode":"train","public":true},"id":"8006050-2019-06-10t13-10-00-000-02-00-8023179-2019-06-10t14-19-00-000-02-00-ic-2442"}]},{"to":"KOELN (Germany)","byTrip":[{"origin":{"type":"station","id":"5457076","name":"PRAGUE HLAVNI NADRAZI (Czech Republic)","location":{"type":"location","longitude":14.435274,"latitude":50.081386}},"destination":{"type":"station","id":"8031922","name":"BERLIN HBF (TIEF) (Germany)","location":{"type":"location","longitude":13.369441,"latitude":52.525553}},"departure":"2019-06-10T10:32:00.000+02:00","arrival":"2019-06-10T14:43:00.000+02:00","operator":"interrail","mode":"train","public":true,"line":{"type":"line","id":"ec-174","name":"EC   174","mode":"train","public":true},"id":"5457076-2019-06-10t10-32-00-000-02-00-8031922-2019-06-10t14-43-00-000-02-00-ec-174"},{"origin":{"type":"station","id":"8031922","name":"BERLIN HBF (TIEF) (Germany)","location":{"type":"location","longitude":13.369441,"latitude":52.525553}},"destination":{"type":"station","id":"8015458","name":"KOELN HBF (Germany)","location":{"type":"location","longitude":6.958613,"latitude":50.943056}},"departure":"2019-06-10T14:51:00.000+02:00","arrival":"2019-06-10T19:12:00.000+02:00","operator":"interrail","mode":"train","public":true,"line":{"type":"line","id":"ice-556","name":"ICE  556","mode":"train","public":true},"id":"8031922-2019-06-10t14-51-00-000-02-00-8015458-2019-06-10t19-12-00-000-02-00-ice-556"}]},{"to":"HANNOVER HBF (Germany)","byTrip":[{"origin":{"type":"station","id":"5457076","name":"PRAGUE HLAVNI NADRAZI (Czech Republic)","location":{"type":"location","longitude":14.435274,"latitude":50.081386}},"destination":{"type":"station","id":"8031922","name":"BERLIN HBF (TIEF) (Germany)","location":{"type":"location","longitude":13.369441,"latitude":52.525553}},"departure":"2019-06-10T10:32:00.000+02:00","arrival":"2019-06-10T14:43:00.000+02:00","operator":"interrail","mode":"train","public":true,"line":{"type":"line","id":"ec-174","name":"EC   174","mode":"train","public":true},"id":"5457076-2019-06-10t10-32-00-000-02-00-8031922-2019-06-10t14-43-00-000-02-00-ec-174"},{"origin":{"type":"station","id":"8031922","name":"BERLIN HBF (TIEF) (Germany)","location":{"type":"location","longitude":13.369441,"latitude":52.525553}},"destination":{"type":"station","id":"8013552","name":"HANNOVER HBF (Germany)","location":{"type":"location","longitude":9.741107,"latitude":52.376665}},"departure":"2019-06-10T14:51:00.000+02:00","arrival":"2019-06-10T16:28:00.000+02:00","operator":"interrail","mode":"train","public":true,"line":{"type":"line","id":"ice-556","name":"ICE  556","mode":"train","public":true},"id":"8031922-2019-06-10t14-51-00-000-02-00-8013552-2019-06-10t16-28-00-000-02-00-ice-556"}]},{"to":"HAMBURG (Germany)","byTrip":[{"origin":{"type":"station","id":"5457076","name":"PRAGUE HLAVNI NADRAZI (Czech Republic)","location":{"type":"location","longitude":14.435274,"latitude":50.081386}},"destination":{"type":"station","id":"8001071","name":"HAMBURG HBF (Germany)","location":{"type":"location","longitude":10.006945,"latitude":53.552778}},"departure":"2019-06-10T10:32:00.000+02:00","arrival":"2019-06-10T17:11:00.000+02:00","operator":"interrail","mode":"train","public":true,"line":{"type":"line","id":"ec-174","name":"EC   174","mode":"train","public":true},"id":"5457076-2019-06-10t10-32-00-000-02-00-8001071-2019-06-10t17-11-00-000-02-00-ec-174"}]},{"to":"ESSEN HBF (Germany)","byTrip":[{"origin":{"type":"station","id":"5457076","name":"PRAGUE HLAVNI NADRAZI (Czech Republic)","location":{"type":"location","longitude":14.435274,"latitude":50.081386}},"destination":{"type":"station","id":"8031922","name":"BERLIN HBF (TIEF) (Germany)","location":{"type":"location","longitude":13.369441,"latitude":52.525553}},"departure":"2019-06-10T10:32:00.000+02:00","arrival":"2019-06-10T14:43:00.000+02:00","operator":"interrail","mode":"train","public":true,"line":{"type":"line","id":"ec-174","name":"EC   174","mode":"train","public":true},"id":"5457076-2019-06-10t10-32-00-000-02-00-8031922-2019-06-10t14-43-00-000-02-00-ec-174"},{"origin":{"type":"station","id":"8031922","name":"BERLIN HBF (TIEF) (Germany)","location":{"type":"location","longitude":13.369441,"latitude":52.525553}},"destination":{"type":"station","id":"8010184","name":"ESSEN HBF (Germany)","location":{"type":"location","longitude":7.014723,"latitude":51.451387}},"departure":"2019-06-10T15:49:00.000+02:00","arrival":"2019-06-10T19:34:00.000+02:00","operator":"interrail","mode":"train","public":true,"line":{"type":"line","id":"ice-846","name":"ICE  846","mode":"train","public":true},"id":"8031922-2019-06-10t15-49-00-000-02-00-8010184-2019-06-10t19-34-00-000-02-00-ice-846"}]},{"to":"DUISBURG HBF (Germany)","byTrip":[{"origin":{"type":"station","id":"5457076","name":"PRAGUE HLAVNI NADRAZI (Czech Republic)","location":{"type":"location","longitude":14.435274,"latitude":50.081386}},"destination":{"type":"station","id":"8031922","name":"BERLIN HBF (TIEF) (Germany)","location":{"type":"location","longitude":13.369441,"latitude":52.525553}},"departure":"2019-06-10T10:32:00.000+02:00","arrival":"2019-06-10T14:43:00.000+02:00","operator":"interrail","mode":"train","public":true,"line":{"type":"line","id":"ec-174","name":"EC   174","mode":"train","public":true},"id":"5457076-2019-06-10t10-32-00-000-02-00-8031922-2019-06-10t14-43-00-000-02-00-ec-174"},{"origin":{"type":"station","id":"8031922","name":"BERLIN HBF (TIEF) (Germany)","location":{"type":"location","longitude":13.369441,"latitude":52.525553}},"destination":{"type":"station","id":"8010316","name":"DUISBURG HBF (Germany)","location":{"type":"location","longitude":6.775835,"latitude":51.429723}},"departure":"2019-06-10T15:49:00.000+02:00","arrival":"2019-06-10T19:47:00.000+02:00","operator":"interrail","mode":"train","public":true,"line":{"type":"line","id":"ice-846","name":"ICE  846","mode":"train","public":true},"id":"8031922-2019-06-10t15-49-00-000-02-00-8010316-2019-06-10t19-47-00-000-02-00-ice-846"}]},{"to":"ZAGREB GLAVNI KOL. (Croatia)","byTrip":[{"origin":{"type":"station","id":"5457076","name":"PRAGUE HLAVNI NADRAZI (Czech Republic)","location":{"type":"location","longitude":14.435274,"latitude":50.081386}},"destination":{"type":"station","id":"8103171","name":"GRAZ HBF (Austria)","location":{"type":"location","longitude":15.416392,"latitude":47.07222}},"departure":"2019-06-10T10:50:00.000+02:00","arrival":"2019-06-10T17:33:00.000+02:00","operator":"interrail","mode":"train","public":true,"line":{"type":"line","id":"rj-77","name":"RJ    77","mode":"train","public":true},"id":"5457076-2019-06-10t10-50-00-000-02-00-8103171-2019-06-10t17-33-00-000-02-00-rj-77"},{"origin":{"type":"station","id":"8103171","name":"GRAZ HBF (Austria)","location":{"type":"location","longitude":15.416392,"latitude":47.07222}},"destination":{"type":"station","id":"7872480","name":"ZAGREB GLAVNI KOL. (Croatia)","location":{"type":"location","longitude":15.978892,"latitude":45.804445}},"departure":"2019-06-10T18:39:00.000+02:00","arrival":"2019-06-10T22:41:00.000+02:00","operator":"interrail","mode":"train","public":true,"line":{"type":"line","id":"ec-1259","name":"EC  1259","mode":"train","public":true},"id":"8103171-2019-06-10t18-39-00-000-02-00-7872480-2019-06-10t22-41-00-000-02-00-ec-1259"}]},{"to":"LODZ (Poland)","byTrip":[{"origin":{"type":"station","id":"5457076","name":"PRAGUE HLAVNI NADRAZI (Czech Republic)","location":{"type":"location","longitude":14.435274,"latitude":50.081386}},"destination":{"type":"station","id":"5103350","name":"WARSZAWA ZACHODNIA (Poland)","location":{"type":"location","longitude":20.965281,"latitude":52.220001}},"departure":"2019-06-10T14:24:00.000+02:00","arrival":"2019-06-10T22:28:00.000+02:00","operator":"interrail","mode":"train","public":true,"line":{"type":"line","id":"ec-117","name":"EC   117","mode":"train","public":true},"id":"5457076-2019-06-10t14-24-00-000-02-00-5103350-2019-06-10t22-28-00-000-02-00-ec-117"},{"origin":{"type":"station","id":"5103350","name":"WARSZAWA ZACHODNIA (Poland)","location":{"type":"location","longitude":20.965281,"latitude":52.220001}},"destination":{"type":"station","id":"5104640","name":"LODZ WIDZEW (Poland)","location":{"type":"location","longitude":19.543331,"latitude":51.763052}},"departure":"2019-06-10T23:45:00.000+02:00","arrival":"2019-06-11T00:49:00.000+02:00","operator":"interrail","mode":"train","public":true,"line":{"type":"line","id":"ic-16170","name":"IC 16170","mode":"train","public":true},"id":"5103350-2019-06-10t23-45-00-000-02-00-5104640-2019-06-11t00-49-00-000-02-00-ic-16170"}]},{"to":"DORTMUND HBF (Germany)","byTrip":[{"origin":{"type":"station","id":"5457076","name":"PRAGUE HLAVNI NADRAZI (Czech Republic)","location":{"type":"location","longitude":14.435274,"latitude":50.081386}},"destination":{"type":"station","id":"8031922","name":"BERLIN HBF (TIEF) (Germany)","location":{"type":"location","longitude":13.369441,"latitude":52.525553}},"departure":"2019-06-10T10:32:00.000+02:00","arrival":"2019-06-10T14:43:00.000+02:00","operator":"interrail","mode":"train","public":true,"line":{"type":"line","id":"ec-174","name":"EC   174","mode":"train","public":true},"id":"5457076-2019-06-10t10-32-00-000-02-00-8031922-2019-06-10t14-43-00-000-02-00-ec-174"},{"origin":{"type":"station","id":"8031922","name":"BERLIN HBF (TIEF) (Germany)","location":{"type":"location","longitude":13.369441,"latitude":52.525553}},"destination":{"type":"station","id":"8010053","name":"DORTMUND HBF (Germany)","location":{"type":"location","longitude":7.459168,"latitude":51.517782}},"departure":"2019-06-10T15:49:00.000+02:00","arrival":"2019-06-10T19:10:00.000+02:00","operator":"interrail","mode":"train","public":true,"line":{"type":"line","id":"ice-846","name":"ICE  846","mode":"train","public":true},"id":"8031922-2019-06-10t15-49-00-000-02-00-8010053-2019-06-10t19-10-00-000-02-00-ice-846"}]},{"to":"BREMEN HBF (Germany)","byTrip":[{"origin":{"type":"station","id":"5457076","name":"PRAGUE HLAVNI NADRAZI (Czech Republic)","location":{"type":"location","longitude":14.435274,"latitude":50.081386}},"destination":{"type":"station","id":"8001071","name":"HAMBURG HBF (Germany)","location":{"type":"location","longitude":10.006945,"latitude":53.552778}},"departure":"2019-06-10T10:32:00.000+02:00","arrival":"2019-06-10T17:11:00.000+02:00","operator":"interrail","mode":"train","public":true,"line":{"type":"line","id":"ec-174","name":"EC   174","mode":"train","public":true},"id":"5457076-2019-06-10t10-32-00-000-02-00-8001071-2019-06-10t17-11-00-000-02-00-ec-174"},{"origin":{"type":"station","id":"8001071","name":"HAMBURG HBF (Germany)","location":{"type":"location","longitude":10.006945,"latitude":53.552778}},"destination":{"type":"station","id":"8013751","name":"BREMEN HBF (Germany)","location":{"type":"location","longitude":8.813887,"latitude":53.083613}},"departure":"2019-06-10T17:46:00.000+02:00","arrival":"2019-06-10T18:41:00.000+02:00","operator":"interrail","mode":"train","public":true,"line":{"type":"line","id":"ic-2321","name":"IC  2321","mode":"train","public":true},"id":"8001071-2019-06-10t17-46-00-000-02-00-8013751-2019-06-10t18-41-00-000-02-00-ic-2321"}]},{"to":"Rome Termini (Italy)","byTrip":[{"origin":{"type":"station","id":"5457076","name":"PRAGUE HLAVNI NADRAZI (Czech Republic)","location":{"type":"location","longitude":14.435274,"latitude":50.081386}},"destination":{"type":"station","id":"8101003","name":"WIEN HBF (Austria)","location":{"type":"location","longitude":16.375829,"latitude":48.185004}},"departure":"2019-06-10T14:50:00.000+02:00","arrival":"2019-06-10T18:49:00.000+02:00","operator":"interrail","mode":"train","public":true,"line":{"type":"line","id":"rj-371","name":"RJ   371","mode":"train","public":true},"id":"5457076-2019-06-10t14-50-00-000-02-00-8101003-2019-06-10t18-49-00-000-02-00-rj-371"},{"origin":{"type":"station","id":"8101003","name":"WIEN HBF (Austria)","location":{"type":"location","longitude":16.375829,"latitude":48.185004}},"destination":{"type":"station","id":"8308409","name":"ROMA TERMINI (Italy)","location":{"type":"location","longitude":12.501667,"latitude":41.900555}},"departure":"2019-06-10T19:23:00.000+02:00","arrival":"2019-06-11T09:22:00.000+02:00","operator":"interrail","mode":"train","public":true,"line":{"type":"line","id":"nj-40233","name":"NJ 40233","mode":"train","public":true},"id":"8101003-2019-06-10t19-23-00-000-02-00-8308409-2019-06-11t09-22-00-000-02-00-nj-40233"}]},{"to":"MILANO CITY (Italy)","byTrip":[{"origin":{"type":"station","id":"5457076","name":"PRAGUE HLAVNI NADRAZI (Czech Republic)","location":{"type":"location","longitude":14.435274,"latitude":50.081386}},"destination":{"type":"station","id":"8101003","name":"WIEN HBF (Austria)","location":{"type":"location","longitude":16.375829,"latitude":48.185004}},"departure":"2019-06-10T14:50:00.000+02:00","arrival":"2019-06-10T18:49:00.000+02:00","operator":"interrail","mode":"train","public":true,"line":{"type":"line","id":"rj-371","name":"RJ   371","mode":"train","public":true},"id":"5457076-2019-06-10t14-50-00-000-02-00-8101003-2019-06-10t18-49-00-000-02-00-rj-371"},{"origin":{"type":"station","id":"8101003","name":"WIEN HBF (Austria)","location":{"type":"location","longitude":16.375829,"latitude":48.185004}},"destination":{"type":"station","id":"8301701","name":"MILANO LAMBRATE (Italy)","location":{"type":"location","longitude":9.236947,"latitude":45.484725}},"departure":"2019-06-10T19:23:00.000+02:00","arrival":"2019-06-11T08:59:00.000+02:00","operator":"interrail","mode":"train","public":true,"line":{"type":"line","id":"nj-233","name":"NJ   233","mode":"train","public":true},"id":"8101003-2019-06-10t19-23-00-000-02-00-8301701-2019-06-11t08-59-00-000-02-00-nj-233"}]}],"Muenchen City (Germany)":[{"to":"VIENNA (Austria)","byTrip":{"origin":{"type":"station","id":"8103107","name":"WIEN MEIDLING (Austria)","location":{"type":"location","longitude":16.333058,"latitude":48.174442}},"destination":{"type":"station","id":"8020347","name":"MUENCHEN HBF (Germany)","location":{"type":"location","longitude":11.55833,"latitude":48.140274}},"departure":"2019-06-10T10:37:00.000+02:00","arrival":"2019-06-10T14:57:00.000+02:00","operator":"interrail","mode":"train","public":true,"line":{"type":"line","id":"ec-60","name":"EC    60","mode":"train","public":true},"id":"8103107-2019-06-10t10-37-00-000-02-00-8020347-2019-06-10t14-57-00-000-02-00-ec-60"}},{"to":"HAMBURG (Germany)","byTrip":{"origin":{"type":"station","id":"8020347","name":"MUENCHEN HBF (Germany)","location":{"type":"location","longitude":11.55833,"latitude":48.140274}},"destination":{"type":"station","id":"8001071","name":"HAMBURG HBF (Germany)","location":{"type":"location","longitude":10.006945,"latitude":53.552778}},"departure":"2019-06-10T11:20:00.000+02:00","arrival":"2019-06-10T16:54:00.000+02:00","operator":"interrail","mode":"train","public":true,"line":{"type":"line","id":"ice-588","name":"ICE  588","mode":"train","public":true},"id":"8020347-2019-06-10t11-20-00-000-02-00-8001071-2019-06-10t16-54-00-000-02-00-ice-588"}},{"to":"BERLIN (Germany)","byTrip":{"origin":{"type":"station","id":"8020347","name":"MUENCHEN HBF (Germany)","location":{"type":"location","longitude":11.55833,"latitude":48.140274}},"destination":{"type":"station","id":"8065971","name":"BERLIN SUEDKREUZ (Germany)","location":{"type":"location","longitude":13.365279,"latitude":52.474998}},"departure":"2019-06-10T10:43:00.000+02:00","arrival":"2019-06-10T15:22:00.000+02:00","operator":"interrail","mode":"train","public":true,"line":{"type":"line","id":"ice-508","name":"ICE  508","mode":"train","public":true},"id":"8020347-2019-06-10t10-43-00-000-02-00-8065971-2019-06-10t15-22-00-000-02-00-ice-508"}},{"to":"BUDAPEST (Hungary)","byTrip":{"origin":{"type":"station","id":"8020347","name":"MUENCHEN HBF (Germany)","location":{"type":"location","longitude":11.55833,"latitude":48.140274}},"destination":{"type":"station","id":"5501024","name":"BUDAPEST-KELENFOELD (Hungary)","location":{"type":"location","longitude":19.019997,"latitude":47.464447}},"departure":"2019-06-10T13:01:00.000+02:00","arrival":"2019-06-10T20:02:00.000+02:00","operator":"interrail","mode":"train","public":true,"line":{"type":"line","id":"ec-67","name":"EC    67","mode":"train","public":true},"id":"8020347-2019-06-10t13-01-00-000-02-00-5501024-2019-06-10t20-02-00-000-02-00-ec-67"}},{"to":"STUTTGART HBF (Germany)","byTrip":{"origin":{"type":"station","id":"8029034","name":"STUTTGART HBF (Germany)","location":{"type":"location","longitude":9.181663,"latitude":48.784171}},"destination":{"type":"station","id":"8020347","name":"MUENCHEN HBF (Germany)","location":{"type":"location","longitude":11.55833,"latitude":48.140274}},"departure":"2019-06-10T11:14:00.000+02:00","arrival":"2019-06-10T13:27:00.000+02:00","operator":"interrail","mode":"train","public":true,"line":{"type":"line","id":"ice-2533","name":"ICE 2533","mode":"train","public":true},"id":"8029034-2019-06-10t11-14-00-000-02-00-8020347-2019-06-10t13-27-00-000-02-00-ice-2533"}},{"to":"ESSEN HBF (Germany)","byTrip":{"origin":{"type":"station","id":"8020347","name":"MUENCHEN HBF (Germany)","location":{"type":"location","longitude":11.55833,"latitude":48.140274}},"destination":{"type":"station","id":"8010184","name":"ESSEN HBF (Germany)","location":{"type":"location","longitude":7.014723,"latitude":51.451387}},"departure":"2019-06-10T10:30:00.000+02:00","arrival":"2019-06-10T16:02:00.000+02:00","operator":"interrail","mode":"train","public":true,"line":{"type":"line","id":"ice-720","name":"ICE  720","mode":"train","public":true},"id":"8020347-2019-06-10t10-30-00-000-02-00-8010184-2019-06-10t16-02-00-000-02-00-ice-720"}},{"to":"DUISBURG HBF (Germany)","byTrip":{"origin":{"type":"station","id":"8020347","name":"MUENCHEN HBF (Germany)","location":{"type":"location","longitude":11.55833,"latitude":48.140274}},"destination":{"type":"station","id":"8010316","name":"DUISBURG HBF (Germany)","location":{"type":"location","longitude":6.775835,"latitude":51.429723}},"departure":"2019-06-10T10:30:00.000+02:00","arrival":"2019-06-10T15:49:00.000+02:00","operator":"interrail","mode":"train","public":true,"line":{"type":"line","id":"ice-720","name":"ICE  720","mode":"train","public":true},"id":"8020347-2019-06-10t10-30-00-000-02-00-8010316-2019-06-10t15-49-00-000-02-00-ice-720"}},{"to":"DORTMUND HBF (Germany)","byTrip":{"origin":{"type":"station","id":"8020347","name":"MUENCHEN HBF (Germany)","location":{"type":"location","longitude":11.55833,"latitude":48.140274}},"destination":{"type":"station","id":"8010053","name":"DORTMUND HBF (Germany)","location":{"type":"location","longitude":7.459168,"latitude":51.517782}},"departure":"2019-06-10T10:30:00.000+02:00","arrival":"2019-06-10T16:14:00.000+02:00","operator":"interrail","mode":"train","public":true,"line":{"type":"line","id":"ice-1224","name":"ICE 1224","mode":"train","public":true},"id":"8020347-2019-06-10t10-30-00-000-02-00-8010053-2019-06-10t16-14-00-000-02-00-ice-1224"}},{"to":"BREMEN HBF (Germany)","byTrip":{"origin":{"type":"station","id":"8020347","name":"MUENCHEN HBF (Germany)","location":{"type":"location","longitude":11.55833,"latitude":48.140274}},"destination":{"type":"station","id":"8013751","name":"BREMEN HBF (Germany)","location":{"type":"location","longitude":8.813887,"latitude":53.083613}},"departure":"2019-06-10T11:20:00.000+02:00","arrival":"2019-06-10T16:44:00.000+02:00","operator":"interrail","mode":"train","public":true,"line":{"type":"line","id":"ice-538","name":"ICE  538","mode":"train","public":true},"id":"8020347-2019-06-10t11-20-00-000-02-00-8013751-2019-06-10t16-44-00-000-02-00-ice-538"}},{"to":"ZAGREB GLAVNI KOL. (Croatia)","byTrip":{"origin":{"type":"station","id":"8020347","name":"MUENCHEN HBF (Germany)","location":{"type":"location","longitude":11.55833,"latitude":48.140274}},"destination":{"type":"station","id":"7872480","name":"ZAGREB GLAVNI KOL. (Croatia)","location":{"type":"location","longitude":15.978892,"latitude":45.804445}},"departure":"2019-06-10T22:36:00.000+02:00","arrival":"2019-06-11T08:35:00.000+02:00","operator":"interrail","mode":"train","public":true,"line":{"type":"line","id":"en-50463","name":"EN 50463","mode":"train","public":true},"id":"8020347-2019-06-10t22-36-00-000-02-00-7872480-2019-06-11t08-35-00-000-02-00-en-50463"}},{"to":"BOCHUM HBF (Germany)","byTrip":{"origin":{"type":"station","id":"8020347","name":"MUENCHEN HBF (Germany)","location":{"type":"location","longitude":11.55833,"latitude":48.140274}},"destination":{"type":"station","id":"8010179","name":"BOCHUM HBF (Germany)","location":{"type":"location","longitude":7.223336,"latitude":51.478607}},"departure":"2019-06-10T10:30:00.000+02:00","arrival":"2019-06-10T16:27:00.000+02:00","operator":"interrail","mode":"train","public":true,"line":{"type":"line","id":"ice-1224","name":"ICE 1224","mode":"train","public":true},"id":"8020347-2019-06-10t10-30-00-000-02-00-8010179-2019-06-10t16-27-00-000-02-00-ice-1224"}},{"to":"BOLOGNA CITY (Italy)","byTrip":{"origin":{"type":"station","id":"8020347","name":"MUENCHEN HBF (Germany)","location":{"type":"location","longitude":11.55833,"latitude":48.140274}},"destination":{"type":"station","id":"8305043","name":"BOLOGNA CENTRALE (Italy)","location":{"type":"location","longitude":11.341942,"latitude":44.506393}},"departure":"2019-06-10T13:35:00.000+02:00","arrival":"2019-06-10T20:16:00.000+02:00","operator":"interrail","mode":"train","public":true,"line":{"type":"line","id":"ecb-89","name":"ECB   89","mode":"train","public":true},"id":"8020347-2019-06-10t13-35-00-000-02-00-8305043-2019-06-10t20-16-00-000-02-00-ecb-89"}},{"to":"MANNHEIM HBF (Germany)","byTrip":{"origin":{"type":"station","id":"8020347","name":"MUENCHEN HBF (Germany)","location":{"type":"location","longitude":11.55833,"latitude":48.140274}},"destination":{"type":"station","id":"8014008","name":"MANNHEIM HBF (Germany)","location":{"type":"location","longitude":8.46889,"latitude":49.479442}},"departure":"2019-06-10T11:28:00.000+02:00","arrival":"2019-06-10T14:28:00.000+02:00","operator":"interrail","mode":"train","public":true,"line":{"type":"line","id":"ice-518","name":"ICE  518","mode":"train","public":true},"id":"8020347-2019-06-10t11-28-00-000-02-00-8014008-2019-06-10t14-28-00-000-02-00-ice-518"}},{"to":"KARLSRUHE HBF (Germany)","byTrip":{"origin":{"type":"station","id":"8020347","name":"MUENCHEN HBF (Germany)","location":{"type":"location","longitude":11.55833,"latitude":48.140274}},"destination":{"type":"station","id":"8014228","name":"KARLSRUHE HBF (Germany)","location":{"type":"location","longitude":8.402226,"latitude":48.993611}},"departure":"2019-06-10T12:46:00.000+02:00","arrival":"2019-06-10T15:53:00.000+02:00","operator":"interrail","mode":"train","public":true,"line":{"type":"line","id":"ic-2264","name":"IC  2264","mode":"train","public":true},"id":"8020347-2019-06-10t12-46-00-000-02-00-8014228-2019-06-10t15-53-00-000-02-00-ic-2264"}},{"to":"VENEZIA CITY (Italy)","byTrip":{"origin":{"type":"station","id":"8020347","name":"MUENCHEN HBF (Germany)","location":{"type":"location","longitude":11.55833,"latitude":48.140274}},"destination":{"type":"station","id":"8302589","name":"VENEZIA MESTRE (Italy)","location":{"type":"location","longitude":12.231667,"latitude":45.481948}},"departure":"2019-06-10T11:35:00.000+02:00","arrival":"2019-06-10T17:58:00.000+02:00","operator":"interrail","mode":"train","public":true,"line":{"type":"line","id":"ecb-87","name":"ECB   87","mode":"train","public":true},"id":"8020347-2019-06-10t11-35-00-000-02-00-8302589-2019-06-10t17-58-00-000-02-00-ecb-87"}},{"to":"KOELN (Germany)","byTrip":[{"origin":{"type":"station","id":"8020347","name":"MUENCHEN HBF (Germany)","location":{"type":"location","longitude":11.55833,"latitude":48.140274}},"destination":{"type":"station","id":"8015032","name":"KOELN MESSE/DEUTZ GL.11-12 (Germany)","location":{"type":"location","longitude":6.974164,"latitude":50.941663}},"departure":"2019-06-10T10:30:00.000+02:00","arrival":"2019-06-10T15:14:00.000+02:00","operator":"interrail","mode":"train","public":true,"line":{"type":"line","id":"ice-720","name":"ICE  720","mode":"train","public":true},"id":"8020347-2019-06-10t10-30-00-000-02-00-8015032-2019-06-10t15-14-00-000-02-00-ice-720"}]},{"to":"LVOV (Ukraine)","byTrip":[{"origin":{"type":"station","id":"8020347","name":"MUENCHEN HBF (Germany)","location":{"type":"location","longitude":11.55833,"latitude":48.140274}},"destination":{"type":"station","id":"5501024","name":"BUDAPEST-KELENFOELD (Hungary)","location":{"type":"location","longitude":19.019997,"latitude":47.464447}},"departure":"2019-06-13T11:30:00.000+02:00","arrival":"2019-06-13T18:02:00.000+02:00","operator":"interrail","mode":"train","public":true,"line":{"type":"line","id":"ec-65","name":"EC    65","mode":"train","public":true},"id":"8020347-2019-06-13t11-30-00-000-02-00-5501024-2019-06-13t18-02-00-000-02-00-ec-65"},{"origin":{"type":"station","id":"5501024","name":"BUDAPEST-KELENFOELD (Hungary)","location":{"type":"location","longitude":19.019997,"latitude":47.464447}},"destination":{"type":"station","id":"2237000","name":"LVOV (Ukraine)","location":{"type":"location","longitude":24.011995,"latitude":49.841671}},"departure":"2019-06-13T19:04:00.000+02:00","arrival":"2019-06-14T10:14:00.000+02:00","operator":"interrail","mode":"train","public":true,"line":{"type":"line","id":"ft-40147","name":"FT 40147","mode":"train","public":true},"id":"5501024-2019-06-13t19-04-00-000-02-00-2237000-2019-06-14t10-14-00-000-02-00-ft-40147"}]},{"to":"LEIPZIG HBF (Germany)","byTrip":[{"origin":{"type":"station","id":"8020347","name":"MUENCHEN HBF (Germany)","location":{"type":"location","longitude":11.55833,"latitude":48.140274}},"destination":{"type":"station","id":"8023179","name":"LEIPZIG HBF (Germany)","location":{"type":"location","longitude":12.38194,"latitude":51.345557}},"departure":"2019-06-10T10:43:00.000+02:00","arrival":"2019-06-10T14:10:00.000+02:00","operator":"interrail","mode":"train","public":true,"line":{"type":"line","id":"ice-508","name":"ICE  508","mode":"train","public":true},"id":"8020347-2019-06-10t10-43-00-000-02-00-8023179-2019-06-10t14-10-00-000-02-00-ice-508"}]},{"to":"FRANKFURT AM MAIN FLUGHAFEN FERNBAHNHOF (Germany)","byTrip":[{"origin":{"type":"station","id":"8020347","name":"MUENCHEN HBF (Germany)","location":{"type":"location","longitude":11.55833,"latitude":48.140274}},"destination":{"type":"station","id":"8061676","name":"FRANKFURT(M) FLUGHAFEN FERNBF (Germany)","location":{"type":"location","longitude":8.57028,"latitude":50.053052}},"departure":"2019-06-10T10:30:00.000+02:00","arrival":"2019-06-10T14:22:00.000+02:00","operator":"interrail","mode":"train","public":true,"line":{"type":"line","id":"ice-720","name":"ICE  720","mode":"train","public":true},"id":"8020347-2019-06-10t10-30-00-000-02-00-8061676-2019-06-10t14-22-00-000-02-00-ice-720"}]}],"HAMBURG (Germany)":[{"to":"VIENNA (Austria)","byTrip":{"origin":{"type":"station","id":"8103107","name":"WIEN MEIDLING (Austria)","location":{"type":"location","longitude":16.333058,"latitude":48.174442}},"destination":{"type":"station","id":"8001071","name":"HAMBURG HBF (Germany)","location":{"type":"location","longitude":10.006945,"latitude":53.552778}},"departure":"2019-06-10T13:22:00.000+02:00","arrival":"2019-06-10T21:53:00.000+02:00","operator":"interrail","mode":"train","public":true,"line":{"type":"line","id":"ice-90","name":"ICE   90","mode":"train","public":true},"id":"8103107-2019-06-10t13-22-00-000-02-00-8001071-2019-06-10t21-53-00-000-02-00-ice-90"}},{"to":"Muenchen City (Germany)","byTrip":{"origin":{"type":"station","id":"8020347","name":"MUENCHEN HBF (Germany)","location":{"type":"location","longitude":11.55833,"latitude":48.140274}},"destination":{"type":"station","id":"8001071","name":"HAMBURG HBF (Germany)","location":{"type":"location","longitude":10.006945,"latitude":53.552778}},"departure":"2019-06-10T11:20:00.000+02:00","arrival":"2019-06-10T16:54:00.000+02:00","operator":"interrail","mode":"train","public":true,"line":{"type":"line","id":"ice-588","name":"ICE  588","mode":"train","public":true},"id":"8020347-2019-06-10t11-20-00-000-02-00-8001071-2019-06-10t16-54-00-000-02-00-ice-588"}},{"to":"BERLIN (Germany)","byTrip":{"origin":{"type":"station","id":"8001071","name":"HAMBURG HBF (Germany)","location":{"type":"location","longitude":10.006945,"latitude":53.552778}},"destination":{"type":"station","id":"8031922","name":"BERLIN HBF (TIEF) (Germany)","location":{"type":"location","longitude":13.369441,"latitude":52.525553}},"departure":"2019-06-10T10:35:00.000+02:00","arrival":"2019-06-10T12:20:00.000+02:00","operator":"interrail","mode":"train","public":true,"line":{"type":"line","id":"ice-705","name":"ICE  705","mode":"train","public":true},"id":"8001071-2019-06-10t10-35-00-000-02-00-8031922-2019-06-10t12-20-00-000-02-00-ice-705"}},{"to":"Copenhagen (Denmark)","byTrip":{"origin":{"type":"station","id":"8001071","name":"HAMBURG HBF (Germany)","location":{"type":"location","longitude":10.006945,"latitude":53.552778}},"destination":{"type":"station","id":"8600626","name":"Koebenhavn H (Denmark)","location":{"type":"location","longitude":12.565553,"latitude":55.673054}},"departure":"2019-06-10T23:42:00.000+02:00","arrival":"2019-06-11T06:53:00.000+02:00","operator":"interrail","mode":"train","public":true,"line":{"type":"line","id":"ic-431","name":"IC   431","mode":"train","public":true},"id":"8001071-2019-06-10t23-42-00-000-02-00-8600626-2019-06-11t06-53-00-000-02-00-ic-431"}},{"to":"KOELN (Germany)","byTrip":{"origin":{"type":"station","id":"8015458","name":"KOELN HBF (Germany)","location":{"type":"location","longitude":6.958613,"latitude":50.943056}},"destination":{"type":"station","id":"8001071","name":"HAMBURG HBF (Germany)","location":{"type":"location","longitude":10.006945,"latitude":53.552778}},"departure":"2019-06-10T11:09:00.000+02:00","arrival":"2019-06-10T15:12:00.000+02:00","operator":"interrail","mode":"train","public":true,"line":{"type":"line","id":"ic-2216","name":"IC  2216","mode":"train","public":true},"id":"8015458-2019-06-10t11-09-00-000-02-00-8001071-2019-06-10t15-12-00-000-02-00-ic-2216"}},{"to":"ESSEN HBF (Germany)","byTrip":{"origin":{"type":"station","id":"8001071","name":"HAMBURG HBF (Germany)","location":{"type":"location","longitude":10.006945,"latitude":53.552778}},"destination":{"type":"station","id":"8010184","name":"ESSEN HBF (Germany)","location":{"type":"location","longitude":7.014723,"latitude":51.451387}},"departure":"2019-06-10T10:46:00.000+02:00","arrival":"2019-06-10T13:58:00.000+02:00","operator":"interrail","mode":"train","public":true,"line":{"type":"line","id":"ic-2217","name":"IC  2217","mode":"train","public":true},"id":"8001071-2019-06-10t10-46-00-000-02-00-8010184-2019-06-10t13-58-00-000-02-00-ic-2217"}},{"to":"DUESSELDORF HBF (Germany)","byTrip":{"origin":{"type":"station","id":"8001071","name":"HAMBURG HBF (Germany)","location":{"type":"location","longitude":10.006945,"latitude":53.552778}},"destination":{"type":"station","id":"8008094","name":"DUESSELDORF HBF (Germany)","location":{"type":"location","longitude":6.794443,"latitude":51.219996}},"departure":"2019-06-10T10:46:00.000+02:00","arrival":"2019-06-10T14:25:00.000+02:00","operator":"interrail","mode":"train","public":true,"line":{"type":"line","id":"ic-2217","name":"IC  2217","mode":"train","public":true},"id":"8001071-2019-06-10t10-46-00-000-02-00-8008094-2019-06-10t14-25-00-000-02-00-ic-2217"}},{"to":"DUISBURG HBF (Germany)","byTrip":{"origin":{"type":"station","id":"8001071","name":"HAMBURG HBF (Germany)","location":{"type":"location","longitude":10.006945,"latitude":53.552778}},"destination":{"type":"station","id":"8010316","name":"DUISBURG HBF (Germany)","location":{"type":"location","longitude":6.775835,"latitude":51.429723}},"departure":"2019-06-10T10:46:00.000+02:00","arrival":"2019-06-10T14:11:00.000+02:00","operator":"interrail","mode":"train","public":true,"line":{"type":"line","id":"ic-2217","name":"IC  2217","mode":"train","public":true},"id":"8001071-2019-06-10t10-46-00-000-02-00-8010316-2019-06-10t14-11-00-000-02-00-ic-2217"}},{"to":"DORTMUND HBF (Germany)","byTrip":{"origin":{"type":"station","id":"8001071","name":"HAMBURG HBF (Germany)","location":{"type":"location","longitude":10.006945,"latitude":53.552778}},"destination":{"type":"station","id":"8010053","name":"DORTMUND HBF (Germany)","location":{"type":"location","longitude":7.459168,"latitude":51.517782}},"departure":"2019-06-10T11:46:00.000+02:00","arrival":"2019-06-10T14:36:00.000+02:00","operator":"interrail","mode":"train","public":true,"line":{"type":"line","id":"ic-2027","name":"IC  2027","mode":"train","public":true},"id":"8001071-2019-06-10t11-46-00-000-02-00-8010053-2019-06-10t14-36-00-000-02-00-ic-2027"}},{"to":"BREMEN HBF (Germany)","byTrip":{"origin":{"type":"station","id":"8001071","name":"HAMBURG HBF (Germany)","location":{"type":"location","longitude":10.006945,"latitude":53.552778}},"destination":{"type":"station","id":"8013751","name":"BREMEN HBF (Germany)","location":{"type":"location","longitude":8.813887,"latitude":53.083613}},"departure":"2019-06-10T10:46:00.000+02:00","arrival":"2019-06-10T11:41:00.000+02:00","operator":"interrail","mode":"train","public":true,"line":{"type":"line","id":"ic-2217","name":"IC  2217","mode":"train","public":true},"id":"8001071-2019-06-10t10-46-00-000-02-00-8013751-2019-06-10t11-41-00-000-02-00-ic-2217"}},{"to":"ZUERICH HB (Switzerland)","byTrip":{"origin":{"type":"station","id":"8503000","name":"ZUERICH HB (Switzerland)","location":{"type":"location","longitude":8.540274,"latitude":47.37806}},"destination":{"type":"station","id":"8001071","name":"HAMBURG HBF (Germany)","location":{"type":"location","longitude":10.006945,"latitude":53.552778}},"departure":"2019-06-10T12:00:00.000+02:00","arrival":"2019-06-10T20:10:00.000+02:00","operator":"interrail","mode":"train","public":true,"line":{"type":"line","id":"ice-72","name":"ICE   72","mode":"train","public":true},"id":"8503000-2019-06-10t12-00-00-000-02-00-8001071-2019-06-10t20-10-00-000-02-00-ice-72"}},{"to":"BONN HBF (Germany)","byTrip":{"origin":{"type":"station","id":"8001071","name":"HAMBURG HBF (Germany)","location":{"type":"location","longitude":10.006945,"latitude":53.552778}},"destination":{"type":"station","id":"8015485","name":"BONN HBF (Germany)","location":{"type":"location","longitude":7.097226,"latitude":50.731945}},"departure":"2019-06-10T10:46:00.000+02:00","arrival":"2019-06-10T15:12:00.000+02:00","operator":"interrail","mode":"train","public":true,"line":{"type":"line","id":"ic-2217","name":"IC  2217","mode":"train","public":true},"id":"8001071-2019-06-10t10-46-00-000-02-00-8015485-2019-06-10t15-12-00-000-02-00-ic-2217"}},{"to":"MUENSTER(WESTF)HBF (Germany)","byTrip":{"origin":{"type":"station","id":"8021011","name":"MUENSTER(WESTF)HBF (Germany)","location":{"type":"location","longitude":7.635833,"latitude":51.956671}},"destination":{"type":"station","id":"8001071","name":"HAMBURG HBF (Germany)","location":{"type":"location","longitude":10.006945,"latitude":53.552778}},"departure":"2019-06-10T10:57:00.000+02:00","arrival":"2019-06-10T13:14:00.000+02:00","operator":"interrail","mode":"train","public":true,"line":{"type":"line","id":"ic-2310","name":"IC  2310","mode":"train","public":true},"id":"8021011-2019-06-10t10-57-00-000-02-00-8001071-2019-06-10t13-14-00-000-02-00-ic-2310"}},{"to":"PRAGUE (Czech Republic)","byTrip":[{"origin":{"type":"station","id":"5457076","name":"PRAGUE HLAVNI NADRAZI (Czech Republic)","location":{"type":"location","longitude":14.435274,"latitude":50.081386}},"destination":{"type":"station","id":"8001071","name":"HAMBURG HBF (Germany)","location":{"type":"location","longitude":10.006945,"latitude":53.552778}},"departure":"2019-06-10T10:32:00.000+02:00","arrival":"2019-06-10T17:11:00.000+02:00","operator":"interrail","mode":"train","public":true,"line":{"type":"line","id":"ec-174","name":"EC   174","mode":"train","public":true},"id":"5457076-2019-06-10t10-32-00-000-02-00-8001071-2019-06-10t17-11-00-000-02-00-ec-174"}]},{"to":"FRANKFURT AM MAIN FLUGHAFEN FERNBAHNHOF (Germany)","byTrip":[{"origin":{"type":"station","id":"8001071","name":"HAMBURG HBF (Germany)","location":{"type":"location","longitude":10.006945,"latitude":53.552778}},"destination":{"type":"station","id":"8008094","name":"DUESSELDORF HBF (Germany)","location":{"type":"location","longitude":6.794443,"latitude":51.219996}},"departure":"2019-06-10T10:46:00.000+02:00","arrival":"2019-06-10T14:25:00.000+02:00","operator":"interrail","mode":"train","public":true,"line":{"type":"line","id":"ic-2217","name":"IC  2217","mode":"train","public":true},"id":"8001071-2019-06-10t10-46-00-000-02-00-8008094-2019-06-10t14-25-00-000-02-00-ic-2217"},{"origin":{"type":"station","id":"8008094","name":"DUESSELDORF HBF (Germany)","location":{"type":"location","longitude":6.794443,"latitude":51.219996}},"destination":{"type":"station","id":"8061676","name":"FRANKFURT(M) FLUGHAFEN FERNBF (Germany)","location":{"type":"location","longitude":8.57028,"latitude":50.053052}},"departure":"2019-06-10T14:54:00.000+02:00","arrival":"2019-06-10T16:07:00.000+02:00","operator":"interrail","mode":"train","public":true,"line":{"type":"line","id":"ice-915","name":"ICE  915","mode":"train","public":true},"id":"8008094-2019-06-10t14-54-00-000-02-00-8061676-2019-06-10t16-07-00-000-02-00-ice-915"}]},{"to":"STOCKHOLM (Sweden)","byTrip":[{"origin":{"type":"station","id":"8001071","name":"HAMBURG HBF (Germany)","location":{"type":"location","longitude":10.006945,"latitude":53.552778}},"destination":{"type":"station","id":"8600626","name":"Koebenhavn H (Denmark)","location":{"type":"location","longitude":12.565553,"latitude":55.673054}},"departure":"2019-06-10T23:42:00.000+02:00","arrival":"2019-06-11T06:53:00.000+02:00","operator":"interrail","mode":"train","public":true,"line":{"type":"line","id":"ic-431","name":"IC   431","mode":"train","public":true},"id":"8001071-2019-06-10t23-42-00-000-02-00-8600626-2019-06-11t06-53-00-000-02-00-ic-431"},{"origin":{"type":"station","id":"8600626","name":"Koebenhavn H (Denmark)","location":{"type":"location","longitude":12.565553,"latitude":55.673054}},"destination":{"type":"station","id":"7403751","name":"STOCKHOLM CENTRAL (Sweden)","location":{"type":"location","longitude":18.058052,"latitude":59.330001}},"departure":"2019-06-11T08:23:00.000+02:00","arrival":"2019-06-11T13:36:00.000+02:00","operator":"interrail","mode":"train","public":true,"line":{"type":"line","id":"hst-530","name":"HST  530","mode":"train","public":true},"id":"8600626-2019-06-11t08-23-00-000-02-00-7403751-2019-06-11t13-36-00-000-02-00-hst-530"}]},{"to":"GOTEBORG C (Sweden)","byTrip":[{"origin":{"type":"station","id":"8001071","name":"HAMBURG HBF (Germany)","location":{"type":"location","longitude":10.006945,"latitude":53.552778}},"destination":{"type":"station","id":"8600626","name":"Koebenhavn H (Denmark)","location":{"type":"location","longitude":12.565553,"latitude":55.673054}},"departure":"2019-06-10T23:42:00.000+02:00","arrival":"2019-06-11T06:53:00.000+02:00","operator":"interrail","mode":"train","public":true,"line":{"type":"line","id":"ic-431","name":"IC   431","mode":"train","public":true},"id":"8001071-2019-06-10t23-42-00-000-02-00-8600626-2019-06-11t06-53-00-000-02-00-ic-431"},{"origin":{"type":"station","id":"8600626","name":"Koebenhavn H (Denmark)","location":{"type":"location","longitude":12.565553,"latitude":55.673054}},"destination":{"type":"station","id":"7401318","name":"GOTEBORG C (Sweden)","location":{"type":"location","longitude":11.973335,"latitude":57.708886}},"departure":"2019-06-11T07:27:00.000+02:00","arrival":"2019-06-11T11:05:00.000+02:00","operator":"interrail","mode":"train","public":true,"line":{"type":"line","id":"re-1020","name":"RE  1020","mode":"train","public":true},"id":"8600626-2019-06-11t07-27-00-000-02-00-7401318-2019-06-11t11-05-00-000-02-00-re-1020"}]},{"to":"HANNOVER HBF (Germany)","byTrip":[{"origin":{"type":"station","id":"8013552","name":"HANNOVER HBF (Germany)","location":{"type":"location","longitude":9.741107,"latitude":52.376665}},"destination":{"type":"station","id":"8001071","name":"HAMBURG HBF (Germany)","location":{"type":"location","longitude":10.006945,"latitude":53.552778}},"departure":"2019-06-10T10:36:00.000+02:00","arrival":"2019-06-10T11:56:00.000+02:00","operator":"interrail","mode":"train","public":true,"line":{"type":"line","id":"ice-886","name":"ICE  886","mode":"train","public":true},"id":"8013552-2019-06-10t10-36-00-000-02-00-8001071-2019-06-10t11-56-00-000-02-00-ice-886"}]}],"BUDAPEST (Hungary)":[{"to":"VIENNA (Austria)","byTrip":{"origin":{"type":"station","id":"8101003","name":"WIEN HBF (Austria)","location":{"type":"location","longitude":16.375829,"latitude":48.185004}},"destination":{"type":"station","id":"5501024","name":"BUDAPEST-KELENFOELD (Hungary)","location":{"type":"location","longitude":19.019997,"latitude":47.464447}},"departure":"2019-06-10T11:40:00.000+02:00","arrival":"2019-06-10T14:02:00.000+02:00","operator":"interrail","mode":"train","public":true,"line":{"type":"line","id":"ec-61","name":"EC    61","mode":"train","public":true},"id":"8101003-2019-06-10t11-40-00-000-02-00-5501024-2019-06-10t14-02-00-000-02-00-ec-61"}},{"to":"PRAGUE (Czech Republic)","byTrip":{"origin":{"type":"station","id":"5457076","name":"PRAGUE HLAVNI NADRAZI (Czech Republic)","location":{"type":"location","longitude":14.435274,"latitude":50.081386}},"destination":{"type":"station","id":"5510033","name":"BUDAPEST-NYUGATI (Hungary)","location":{"type":"location","longitude":19.057437,"latitude":47.510678}},"departure":"2019-06-10T11:50:00.000+02:00","arrival":"2019-06-10T18:20:00.000+02:00","operator":"interrail","mode":"train","public":true,"line":{"type":"line","id":"ec-279","name":"EC   279","mode":"train","public":true},"id":"5457076-2019-06-10t11-50-00-000-02-00-5510033-2019-06-10t18-20-00-000-02-00-ec-279"}},{"to":"Muenchen City (Germany)","byTrip":{"origin":{"type":"station","id":"8020347","name":"MUENCHEN HBF (Germany)","location":{"type":"location","longitude":11.55833,"latitude":48.140274}},"destination":{"type":"station","id":"5501024","name":"BUDAPEST-KELENFOELD (Hungary)","location":{"type":"location","longitude":19.019997,"latitude":47.464447}},"departure":"2019-06-10T13:01:00.000+02:00","arrival":"2019-06-10T20:02:00.000+02:00","operator":"interrail","mode":"train","public":true,"line":{"type":"line","id":"ec-67","name":"EC    67","mode":"train","public":true},"id":"8020347-2019-06-10t13-01-00-000-02-00-5501024-2019-06-10t20-02-00-000-02-00-ec-67"}},{"to":"KIEV-PASSAJIRSKII (Ukraine)","byTrip":{"origin":{"type":"station","id":"5510017","name":"BUDAPEST-KELETI (Hungary)","location":{"type":"location","longitude":19.085241,"latitude":47.500628}},"destination":{"type":"station","id":"2232030","name":"KIEV-PASSAJIRSKII (Ukraine)","location":{"type":"location","longitude":30.513973,"latitude":50.434357}},"departure":"2019-06-10T19:40:00.000+02:00","arrival":"2019-06-11T17:14:00.000+02:00","operator":"interrail","mode":"train","public":true,"line":{"type":"line","id":"ft-40147","name":"FT 40147","mode":"train","public":true},"id":"5510017-2019-06-10t19-40-00-000-02-00-2232030-2019-06-11t17-14-00-000-02-00-ft-40147"}},{"to":"MUKACHEVO (Ukraine)","byTrip":{"origin":{"type":"station","id":"5510017","name":"BUDAPEST-KELETI (Hungary)","location":{"type":"location","longitude":19.085241,"latitude":47.500628}},"destination":{"type":"station","id":"2238000","name":"MUKACHEVO (Ukraine)","location":{"type":"location","longitude":22.724236,"latitude":48.438994}},"departure":"2019-06-10T19:40:00.000+02:00","arrival":"2019-06-11T06:19:00.000+02:00","operator":"interrail","mode":"train","public":true,"line":{"type":"line","id":"ft-40147","name":"FT 40147","mode":"train","public":true},"id":"5510017-2019-06-10t19-40-00-000-02-00-2238000-2019-06-11t06-19-00-000-02-00-ft-40147"}},{"to":"LVOV (Ukraine)","byTrip":{"origin":{"type":"station","id":"5510017","name":"BUDAPEST-KELETI (Hungary)","location":{"type":"location","longitude":19.085241,"latitude":47.500628}},"destination":{"type":"station","id":"2237000","name":"LVOV (Ukraine)","location":{"type":"location","longitude":24.011995,"latitude":49.841671}},"departure":"2019-06-10T19:40:00.000+02:00","arrival":"2019-06-11T10:14:00.000+02:00","operator":"interrail","mode":"train","public":true,"line":{"type":"line","id":"ft-40147","name":"FT 40147","mode":"train","public":true},"id":"5510017-2019-06-10t19-40-00-000-02-00-2237000-2019-06-11t10-14-00-000-02-00-ft-40147"}},{"to":"DRESDEN HBF (Germany)","byTrip":{"origin":{"type":"station","id":"8006050","name":"DRESDEN HBF (Germany)","location":{"type":"location","longitude":13.73194,"latitude":51.040553}},"destination":{"type":"station","id":"5510033","name":"BUDAPEST-NYUGATI (Hungary)","location":{"type":"location","longitude":19.057437,"latitude":47.510678}},"departure":"2019-06-10T11:10:00.000+02:00","arrival":"2019-06-10T20:20:00.000+02:00","operator":"interrail","mode":"train","public":true,"line":{"type":"line","id":"ec-173","name":"EC   173","mode":"train","public":true},"id":"8006050-2019-06-10t11-10-00-000-02-00-5510033-2019-06-10t20-20-00-000-02-00-ec-173"}},{"to":"ZUERICH HB (Switzerland)","byTrip":{"origin":{"type":"station","id":"8503000","name":"ZUERICH HB (Switzerland)","location":{"type":"location","longitude":8.540274,"latitude":47.37806}},"destination":{"type":"station","id":"5501024","name":"BUDAPEST-KELENFOELD (Hungary)","location":{"type":"location","longitude":19.019997,"latitude":47.464447}},"departure":"2019-06-10T21:40:00.000+02:00","arrival":"2019-06-11T10:15:00.000+02:00","operator":"interrail","mode":"train","public":true,"line":{"type":"line","id":"en-40467","name":"EN 40467","mode":"train","public":true},"id":"8503000-2019-06-10t21-40-00-000-02-00-5501024-2019-06-11t10-15-00-000-02-00-en-40467"}},{"to":"BRASOV (Romania)","byTrip":{"origin":{"type":"station","id":"5510017","name":"BUDAPEST-KELETI (Hungary)","location":{"type":"location","longitude":19.085241,"latitude":47.500628}},"destination":{"type":"station","id":"5330691","name":"BRASOV (Romania)","location":{"type":"location","longitude":25.613612,"latitude":45.661948}},"departure":"2019-06-10T23:10:00.000+02:00","arrival":"2019-06-11T13:32:00.000+02:00","operator":"interrail","mode":"train","public":true,"line":{"type":"line","id":"nt-347","name":"NT   347","mode":"train","public":true},"id":"5510017-2019-06-10t23-10-00-000-02-00-5330691-2019-06-11t13-32-00-000-02-00-nt-347"}},{"to":"POZNAN GLOWNY (Poland)","byTrip":[{"origin":{"type":"station","id":"5510017","name":"BUDAPEST-KELETI (Hungary)","location":{"type":"location","longitude":19.085241,"latitude":47.500628}},"destination":{"type":"station","id":"5106010","name":"WROCLAW GLOWNY (Poland)","location":{"type":"location","longitude":17.036392,"latitude":51.098057}},"departure":"2019-06-10T19:25:00.000+02:00","arrival":"2019-06-11T05:05:00.000+02:00","operator":"interrail","mode":"train","public":true,"line":{"type":"line","id":"en-40476","name":"EN 40476","mode":"train","public":true},"id":"5510017-2019-06-10t19-25-00-000-02-00-5106010-2019-06-11t05-05-00-000-02-00-en-40476"},{"origin":{"type":"station","id":"5106010","name":"WROCLAW GLOWNY (Poland)","location":{"type":"location","longitude":17.036392,"latitude":51.098057}},"destination":{"type":"station","id":"5103060","name":"POZNAN GLOWNY (Poland)","location":{"type":"location","longitude":16.911667,"latitude":52.401385}},"departure":"2019-06-11T06:42:00.000+02:00","arrival":"2019-06-11T09:02:00.000+02:00","operator":"interrail","mode":"train","public":true,"line":{"type":"line","id":"ic-6503","name":"IC  6503","mode":"train","public":true},"id":"5106010-2019-06-11t06-42-00-000-02-00-5103060-2019-06-11t09-02-00-000-02-00-ic-6503"}]},{"to":"BUCHAREST (Romania)","byTrip":[{"origin":{"type":"station","id":"5510017","name":"BUDAPEST-KELETI (Hungary)","location":{"type":"location","longitude":19.085241,"latitude":47.500628}},"destination":{"type":"station","id":"5310017","name":"BUCURESTI NORD (Romania)","location":{"type":"location","longitude":26.074165,"latitude":44.44639}},"departure":"2019-06-10T23:10:00.000+02:00","arrival":"2019-06-11T16:06:00.000+02:00","operator":"interrail","mode":"train","public":true,"line":{"type":"line","id":"nt-347","name":"NT   347","mode":"train","public":true},"id":"5510017-2019-06-10t23-10-00-000-02-00-5310017-2019-06-11t16-06-00-000-02-00-nt-347"}]},{"to":"STUTTGART HBF (Germany)","byTrip":[{"origin":{"type":"station","id":"8029034","name":"STUTTGART HBF (Germany)","location":{"type":"location","longitude":9.181663,"latitude":48.784171}},"destination":{"type":"station","id":"8020347","name":"MUENCHEN HBF (Germany)","location":{"type":"location","longitude":11.55833,"latitude":48.140274}},"departure":"2019-06-10T20:14:00.000+02:00","arrival":"2019-06-10T22:26:00.000+02:00","operator":"interrail","mode":"train","public":true,"line":{"type":"line","id":"ice-613","name":"ICE  613","mode":"train","public":true},"id":"8029034-2019-06-10t20-14-00-000-02-00-8020347-2019-06-10t22-26-00-000-02-00-ice-613"},{"origin":{"type":"station","id":"8020347","name":"MUENCHEN HBF (Germany)","location":{"type":"location","longitude":11.55833,"latitude":48.140274}},"destination":{"type":"station","id":"5501024","name":"BUDAPEST-KELENFOELD (Hungary)","location":{"type":"location","longitude":19.019997,"latitude":47.464447}},"departure":"2019-06-10T22:36:00.000+02:00","arrival":"2019-06-11T10:16:00.000+02:00","operator":"interrail","mode":"train","public":true,"line":{"type":"line","id":"en-463","name":"EN   463","mode":"train","public":true},"id":"8020347-2019-06-10t22-36-00-000-02-00-5501024-2019-06-11t10-16-00-000-02-00-en-463"}]},{"to":"PARIS (France)","byTrip":[{"origin":{"type":"station","id":"8768600","name":"PARIS GARE DE LYON (France)","location":{"type":"location","longitude":2.374447,"latitude":48.843608}},"destination":{"type":"station","id":"8503000","name":"ZUERICH HB (Switzerland)","location":{"type":"location","longitude":8.540274,"latitude":47.37806}},"departure":"2019-06-10T16:23:00.000+02:00","arrival":"2019-06-10T20:26:00.000+02:00","operator":"interrail","mode":"train","public":true,"line":{"type":"line","id":"tgv-9219","name":"TGV 9219","mode":"train","public":true},"id":"8768600-2019-06-10t16-23-00-000-02-00-8503000-2019-06-10t20-26-00-000-02-00-tgv-9219"},{"origin":{"type":"station","id":"8503000","name":"ZUERICH HB (Switzerland)","location":{"type":"location","longitude":8.540274,"latitude":47.37806}},"destination":{"type":"station","id":"5501024","name":"BUDAPEST-KELENFOELD (Hungary)","location":{"type":"location","longitude":19.019997,"latitude":47.464447}},"departure":"2019-06-10T21:40:00.000+02:00","arrival":"2019-06-11T10:15:00.000+02:00","operator":"interrail","mode":"train","public":true,"line":{"type":"line","id":"en-40467","name":"EN 40467","mode":"train","public":true},"id":"8503000-2019-06-10t21-40-00-000-02-00-5501024-2019-06-11t10-15-00-000-02-00-en-40467"}]},{"to":"ZAGREB GLAVNI KOL. (Croatia)","byTrip":[{"origin":{"type":"station","id":"7872480","name":"ZAGREB GLAVNI KOL. (Croatia)","location":{"type":"location","longitude":15.978892,"latitude":45.804445}},"destination":{"type":"station","id":"5501024","name":"BUDAPEST-KELENFOELD (Hungary)","location":{"type":"location","longitude":19.019997,"latitude":47.464447}},"departure":"2019-06-10T16:38:00.000+02:00","arrival":"2019-06-10T22:16:00.000+02:00","operator":"interrail","mode":"train","public":true,"line":{"type":"line","id":"ic-201","name":"IC   201","mode":"train","public":true},"id":"7872480-2019-06-10t16-38-00-000-02-00-5501024-2019-06-10t22-16-00-000-02-00-ic-201"}]},{"to":"Rome Termini (Italy)","byTrip":[{"origin":{"type":"station","id":"5501024","name":"BUDAPEST-KELENFOELD (Hungary)","location":{"type":"location","longitude":19.019997,"latitude":47.464447}},"destination":{"type":"station","id":"8101003","name":"WIEN HBF (Austria)","location":{"type":"location","longitude":16.375829,"latitude":48.185004}},"departure":"2019-06-10T15:55:00.000+02:00","arrival":"2019-06-10T18:21:00.000+02:00","operator":"interrail","mode":"train","public":true,"line":{"type":"line","id":"rj-68","name":"RJ    68","mode":"train","public":true},"id":"5501024-2019-06-10t15-55-00-000-02-00-8101003-2019-06-10t18-21-00-000-02-00-rj-68"},{"origin":{"type":"station","id":"8101003","name":"WIEN HBF (Austria)","location":{"type":"location","longitude":16.375829,"latitude":48.185004}},"destination":{"type":"station","id":"8308409","name":"ROMA TERMINI (Italy)","location":{"type":"location","longitude":12.501667,"latitude":41.900555}},"departure":"2019-06-10T19:23:00.000+02:00","arrival":"2019-06-11T09:22:00.000+02:00","operator":"interrail","mode":"train","public":true,"line":{"type":"line","id":"nj-40233","name":"NJ 40233","mode":"train","public":true},"id":"8101003-2019-06-10t19-23-00-000-02-00-8308409-2019-06-11t09-22-00-000-02-00-nj-40233"}]},{"to":"MILANO CITY (Italy)","byTrip":[{"origin":{"type":"station","id":"5501024","name":"BUDAPEST-KELENFOELD (Hungary)","location":{"type":"location","longitude":19.019997,"latitude":47.464447}},"destination":{"type":"station","id":"8101003","name":"WIEN HBF (Austria)","location":{"type":"location","longitude":16.375829,"latitude":48.185004}},"departure":"2019-06-10T15:55:00.000+02:00","arrival":"2019-06-10T18:21:00.000+02:00","operator":"interrail","mode":"train","public":true,"line":{"type":"line","id":"rj-68","name":"RJ    68","mode":"train","public":true},"id":"5501024-2019-06-10t15-55-00-000-02-00-8101003-2019-06-10t18-21-00-000-02-00-rj-68"},{"origin":{"type":"station","id":"8101003","name":"WIEN HBF (Austria)","location":{"type":"location","longitude":16.375829,"latitude":48.185004}},"destination":{"type":"station","id":"8301701","name":"MILANO LAMBRATE (Italy)","location":{"type":"location","longitude":9.236947,"latitude":45.484725}},"departure":"2019-06-10T19:23:00.000+02:00","arrival":"2019-06-11T08:59:00.000+02:00","operator":"interrail","mode":"train","public":true,"line":{"type":"line","id":"nj-233","name":"NJ   233","mode":"train","public":true},"id":"8101003-2019-06-10t19-23-00-000-02-00-8301701-2019-06-11t08-59-00-000-02-00-nj-233"}]},{"to":"VOLCHINEC (Moldova)","byTrip":[{"origin":{"type":"station","id":"5510017","name":"BUDAPEST-KELETI (Hungary)","location":{"type":"location","longitude":19.085241,"latitude":47.500628}},"destination":{"type":"station","id":"2232030","name":"KIEV-PASSAJIRSKII (Ukraine)","location":{"type":"location","longitude":30.513973,"latitude":50.434357}},"departure":"2019-06-10T19:40:00.000+02:00","arrival":"2019-06-11T17:14:00.000+02:00","operator":"interrail","mode":"train","public":true,"line":{"type":"line","id":"ft-40147","name":"FT 40147","mode":"train","public":true},"id":"5510017-2019-06-10t19-40-00-000-02-00-2232030-2019-06-11t17-14-00-000-02-00-ft-40147"},{"origin":{"type":"station","id":"2232030","name":"KIEV-PASSAJIRSKII (Ukraine)","location":{"type":"location","longitude":30.513973,"latitude":50.434357}},"destination":{"type":"station","id":"2339430","name":"VOLCHINEC (Moldova)","location":{"type":"location","longitude":28.156678,"latitude":48.553013}},"departure":"2019-06-11T23:51:00.000+02:00","arrival":"2019-06-12T08:23:00.000+02:00","operator":"interrail","mode":"train","public":true,"line":{"type":"line","id":"ir-341mz","name":"IR 341MZ","mode":"train","public":true},"id":"2232030-2019-06-11t23-51-00-000-02-00-2339430-2019-06-12t08-23-00-000-02-00-ir-341mz"}]},{"to":"KRAKOW GLOWNY (Poland)","byTrip":[{"origin":{"type":"station","id":"5510017","name":"BUDAPEST-KELETI (Hungary)","location":{"type":"location","longitude":19.085241,"latitude":47.500628}},"destination":{"type":"station","id":"5108041","name":"KRAKOW GLOWNY (Poland)","location":{"type":"location","longitude":19.947774,"latitude":50.065835}},"departure":"2019-06-10T19:25:00.000+02:00","arrival":"2019-06-11T06:15:00.000+02:00","operator":"interrail","mode":"train","public":true,"line":{"type":"line","id":"en-476","name":"EN   476","mode":"train","public":true},"id":"5510017-2019-06-10t19-25-00-000-02-00-5108041-2019-06-11t06-15-00-000-02-00-en-476"}]}],"Rome Termini (Italy)":[{"to":"VIENNA (Austria)","byTrip":{"origin":{"type":"station","id":"8103107","name":"WIEN MEIDLING (Austria)","location":{"type":"location","longitude":16.333058,"latitude":48.174442}},"destination":{"type":"station","id":"8308409","name":"ROMA TERMINI (Italy)","location":{"type":"location","longitude":12.501667,"latitude":41.900555}},"departure":"2019-06-10T19:31:00.000+02:00","arrival":"2019-06-11T09:22:00.000+02:00","operator":"interrail","mode":"train","public":true,"line":{"type":"line","id":"nj-40233","name":"NJ 40233","mode":"train","public":true},"id":"8103107-2019-06-10t19-31-00-000-02-00-8308409-2019-06-11t09-22-00-000-02-00-nj-40233"}},{"to":"TURIN (Italy)","byTrip":{"origin":{"type":"station","id":"8300035","name":"TORINO PORTA SUSA (Italy)","location":{"type":"location","longitude":7.666945,"latitude":45.07417}},"destination":{"type":"station","id":"8308409","name":"ROMA TERMINI (Italy)","location":{"type":"location","longitude":12.501667,"latitude":41.900555}},"departure":"2019-06-10T12:00:00.000+02:00","arrival":"2019-06-10T15:55:00.000+02:00","operator":"interrail","mode":"train","public":true,"line":{"type":"line","id":"fr-9635","name":"FR  9635","mode":"train","public":true},"id":"8300035-2019-06-10t12-00-00-000-02-00-8308409-2019-06-10t15-55-00-000-02-00-fr-9635"}},{"to":"BOLOGNA CITY (Italy)","byTrip":{"origin":{"type":"station","id":"8308409","name":"ROMA TERMINI (Italy)","location":{"type":"location","longitude":12.501667,"latitude":41.900555}},"destination":{"type":"station","id":"8305043","name":"BOLOGNA CENTRALE (Italy)","location":{"type":"location","longitude":11.341942,"latitude":44.506393}},"departure":"2019-06-10T10:30:00.000+02:00","arrival":"2019-06-10T12:25:00.000+02:00","operator":"interrail","mode":"train","public":true,"line":{"type":"line","id":"fr-9620","name":"FR  9620","mode":"train","public":true},"id":"8308409-2019-06-10t10-30-00-000-02-00-8305043-2019-06-10t12-25-00-000-02-00-fr-9620"}},{"to":"GENOVA CITY (Italy)","byTrip":[{"origin":{"type":"station","id":"8308409","name":"ROMA TERMINI (Italy)","location":{"type":"location","longitude":12.501667,"latitude":41.900555}},"destination":{"type":"station","id":"8301700","name":"MILANO CENTRALE (Italy)","location":{"type":"location","longitude":9.204163,"latitude":45.486388}},"departure":"2019-06-10T10:30:00.000+02:00","arrival":"2019-06-10T13:29:00.000+02:00","operator":"interrail","mode":"train","public":true,"line":{"type":"line","id":"fr-9620","name":"FR  9620","mode":"train","public":true},"id":"8308409-2019-06-10t10-30-00-000-02-00-8301700-2019-06-10t13-29-00-000-02-00-fr-9620"},{"origin":{"type":"station","id":"8301700","name":"MILANO CENTRALE (Italy)","location":{"type":"location","longitude":9.204163,"latitude":45.486388}},"destination":{"type":"station","id":"8304700","name":"GENOVA P.ZA PRINCIPE (Italy)","location":{"type":"location","longitude":8.920553,"latitude":44.417778}},"departure":"2019-06-10T14:05:00.000+02:00","arrival":"2019-06-10T15:44:00.000+02:00","operator":"interrail","mode":"train","public":true,"line":{"type":"line","id":"ic-669","name":"IC   669","mode":"train","public":true},"id":"8301700-2019-06-10t14-05-00-000-02-00-8304700-2019-06-10t15-44-00-000-02-00-ic-669"}]},{"to":"MUKACHEVO (Ukraine)","byTrip":[{"origin":{"type":"station","id":"8308409","name":"ROMA TERMINI (Italy)","location":{"type":"location","longitude":12.501667,"latitude":41.900555}},"destination":{"type":"station","id":"8101003","name":"WIEN HBF (Austria)","location":{"type":"location","longitude":16.375829,"latitude":48.185004}},"departure":"2019-06-10T18:58:00.000+02:00","arrival":"2019-06-11T08:46:00.000+02:00","operator":"interrail","mode":"train","public":true,"line":{"type":"line","id":"nj-40294","name":"NJ 40294","mode":"train","public":true},"id":"8308409-2019-06-10t18-58-00-000-02-00-8101003-2019-06-11t08-46-00-000-02-00-nj-40294"},{"origin":{"type":"station","id":"8101003","name":"WIEN HBF (Austria)","location":{"type":"location","longitude":16.375829,"latitude":48.185004}},"destination":{"type":"station","id":"2238000","name":"MUKACHEVO (Ukraine)","location":{"type":"location","longitude":22.724236,"latitude":48.438994}},"departure":"2019-06-11T16:42:00.000+02:00","arrival":"2019-06-12T06:19:00.000+02:00","operator":"interrail","mode":"train","public":true,"line":{"type":"line","id":"ft-40147","name":"FT 40147","mode":"train","public":true},"id":"8101003-2019-06-11t16-42-00-000-02-00-2238000-2019-06-12t06-19-00-000-02-00-ft-40147"}]},{"to":"PRAGUE (Czech Republic)","byTrip":[{"origin":{"type":"station","id":"5457076","name":"PRAGUE HLAVNI NADRAZI (Czech Republic)","location":{"type":"location","longitude":14.435274,"latitude":50.081386}},"destination":{"type":"station","id":"8101003","name":"WIEN HBF (Austria)","location":{"type":"location","longitude":16.375829,"latitude":48.185004}},"departure":"2019-06-10T14:50:00.000+02:00","arrival":"2019-06-10T18:49:00.000+02:00","operator":"interrail","mode":"train","public":true,"line":{"type":"line","id":"rj-371","name":"RJ   371","mode":"train","public":true},"id":"5457076-2019-06-10t14-50-00-000-02-00-8101003-2019-06-10t18-49-00-000-02-00-rj-371"},{"origin":{"type":"station","id":"8101003","name":"WIEN HBF (Austria)","location":{"type":"location","longitude":16.375829,"latitude":48.185004}},"destination":{"type":"station","id":"8308409","name":"ROMA TERMINI (Italy)","location":{"type":"location","longitude":12.501667,"latitude":41.900555}},"departure":"2019-06-10T19:23:00.000+02:00","arrival":"2019-06-11T09:22:00.000+02:00","operator":"interrail","mode":"train","public":true,"line":{"type":"line","id":"nj-40233","name":"NJ 40233","mode":"train","public":true},"id":"8101003-2019-06-10t19-23-00-000-02-00-8308409-2019-06-11t09-22-00-000-02-00-nj-40233"}]},{"to":"PARIS (France)","byTrip":[{"origin":{"type":"station","id":"8768600","name":"PARIS GARE DE LYON (France)","location":{"type":"location","longitude":2.374447,"latitude":48.843608}},"destination":{"type":"station","id":"8301700","name":"MILANO CENTRALE (Italy)","location":{"type":"location","longitude":9.204163,"latitude":45.486388}},"departure":"2019-06-10T19:15:00.000+02:00","arrival":"2019-06-11T06:00:00.000+02:00","operator":"interrail","mode":"train","public":true,"line":{"type":"line","id":"en-201","name":"EN   201","mode":"train","public":true},"id":"8768600-2019-06-10t19-15-00-000-02-00-8301700-2019-06-11t06-00-00-000-02-00-en-201"},{"origin":{"type":"station","id":"8301700","name":"MILANO CENTRALE (Italy)","location":{"type":"location","longitude":9.204163,"latitude":45.486388}},"destination":{"type":"station","id":"8308409","name":"ROMA TERMINI (Italy)","location":{"type":"location","longitude":12.501667,"latitude":41.900555}},"departure":"2019-06-11T06:30:00.000+02:00","arrival":"2019-06-11T09:29:00.000+02:00","operator":"interrail","mode":"train","public":true,"line":{"type":"line","id":"fr-9607","name":"FR  9607","mode":"train","public":true},"id":"8301700-2019-06-11t06-30-00-000-02-00-8308409-2019-06-11t09-29-00-000-02-00-fr-9607"}]},{"to":"ZAGREB GLAVNI KOL. (Croatia)","byTrip":[{"origin":{"type":"station","id":"7872480","name":"ZAGREB GLAVNI KOL. (Croatia)","location":{"type":"location","longitude":15.978892,"latitude":45.804445}},"destination":{"type":"station","id":"8103654","name":"VILLACH HBF (Austria)","location":{"type":"location","longitude":13.848611,"latitude":46.618607}},"departure":"2019-06-10T18:38:00.000+02:00","arrival":"2019-06-10T22:47:00.000+02:00","operator":"interrail","mode":"train","public":true,"line":{"type":"line","id":"nt-414","name":"NT   414","mode":"train","public":true},"id":"7872480-2019-06-10t18-38-00-000-02-00-8103654-2019-06-10t22-47-00-000-02-00-nt-414"},{"origin":{"type":"station","id":"8103654","name":"VILLACH HBF (Austria)","location":{"type":"location","longitude":13.848611,"latitude":46.618607}},"destination":{"type":"station","id":"8308409","name":"ROMA TERMINI (Italy)","location":{"type":"location","longitude":12.501667,"latitude":41.900555}},"departure":"2019-06-11T00:55:00.000+02:00","arrival":"2019-06-11T09:22:00.000+02:00","operator":"interrail","mode":"train","public":true,"line":{"type":"line","id":"nj-40233","name":"NJ 40233","mode":"train","public":true},"id":"8103654-2019-06-11t00-55-00-000-02-00-8308409-2019-06-11t09-22-00-000-02-00-nj-40233"}]},{"to":"BUDAPEST (Hungary)","byTrip":[{"origin":{"type":"station","id":"5501024","name":"BUDAPEST-KELENFOELD (Hungary)","location":{"type":"location","longitude":19.019997,"latitude":47.464447}},"destination":{"type":"station","id":"8101003","name":"WIEN HBF (Austria)","location":{"type":"location","longitude":16.375829,"latitude":48.185004}},"departure":"2019-06-10T15:55:00.000+02:00","arrival":"2019-06-10T18:21:00.000+02:00","operator":"interrail","mode":"train","public":true,"line":{"type":"line","id":"rj-68","name":"RJ    68","mode":"train","public":true},"id":"5501024-2019-06-10t15-55-00-000-02-00-8101003-2019-06-10t18-21-00-000-02-00-rj-68"},