{"VIENNA (Austria)":[{"to":"PRAGUE (Czech Republic)","byTrip":{"origin":{"type":"station","id":"8101003","name":"WIEN HBF (Austria)","location":{"type":"location","longitude":16.375829,"latitude":48.185004}},"destination":{"type":"station","id":"5457076","name":"PRAGUE HLAVNI NADRAZI (Czech Republic)","location":{"type":"location","longitude":14.435274,"latitude":50.081386}},"departure":"2019-06-10T11:10:00.000+02:00","arrival":"2019-06-10T15:07:00.000+02:00","operator":"interrail","mode":"train","public":true,"line":{"type":"line","id":"rj-74","name":"RJ    74","mode":"train","public":true},"id":"8101003-2019-06-10t11-10-00-000-02-00-5457076-2019-06-10t15-07-00-000-02-00-rj-74"}},{"to":"Muenchen City (Germany)","byTrip":{"origin":{"type":"station","id":"8103107","name":"WIEN MEIDLING (Austria)","location":{"type":"location","longitude":16.333058,"latitude":48.174442}},"destination":{"type":"station","id":"8020347","name":"MUENCHEN HBF (Germany)","location":{"type":"location","longitude":11.55833,"latitude":48.140274}},"departure":"2019-06-10T10:37:00.000+02:00","arrival":"2019-06-10T14:57:00.000+02:00","operator":"interrail","mode":"train","public":true,"line":{"type":"line","id":"ec-60","name":"EC    60","mode":"train","public":true},"id":"8103107-2019-06-10t10-37-00-000-02-00-8020347-2019-06-10t14-57-00-000-02-00-ec-60"}},{"to":"HAMBURG (Germany)","byTrip":{"origin":{"type":"station","id":"8103107","name":"WIEN MEIDLING (Austria)","location":{"type":"location","longitude":16.333058,"latitude":48.174442}},"destination":{"type":"station","id":"8001071","name":"HAMBURG HBF (Germany)","location":{"type":"location","longitude":10.006945,"latitude":53.552778}},"departure":"2019-06-10T13:22:00.000+02:00","arrival":"2019-06-10T21:53:00.000+02:00","operator":"interrail","mode":"train","public":true,"line":{"type":"line","id":"ice-90","name":"ICE   90","mode":"train","public":true},"id":"8103107-2019-06-10t13-22-00-000-02-00-8001071-2019-06-10t21-53-00-000-02-00-ice-90"}},{"to":"BUDAPEST (Hungary)","byTrip":{"origin":{"type":"station","id":"8101003","name":"WIEN HBF (Austria)","location":{"type":"location","longitude":16.375829,"latitude":48.185004}},"destination":{"type":"station","id":"5501024","name":"BUDAPEST-KELENFOELD (Hungary)","location":{"type":"location","longitude":19.019997,"latitude":47.464447}},"departure":"2019-06-10T11:40:00.000+02:00","arrival":"2019-06-10T14:02:00.000+02:00","operator":"interrail","mode":"train","public":true,"line":{"type":"line","id":"ec-61","name":"EC    61","mode":"train","public":true},"id":"8101003-2019-06-10t11-40-00-000-02-00-5501024-2019-06-10t14-02-00-000-02-00-ec-61"}},{"to":"Rome Termini (Italy)","byTrip":{"origin":{"type":"station","id":"8103107","name":"WIEN MEIDLING (Austria)","location":{"type":"location","longitude":16.333058,"latitude":48.174442}},"destination":{"type":"station","id":"8308409","name":"ROMA TERMINI (Italy)","location":{"type":"location","longitude":12.501667,"latitude":41.900555}},"departure":"2019-06-10T19:31:00.000+02:00","arrival":"2019-06-11T09:22:00.000+02:00","operator":"interrail","mode":"train","public":true,"line":{"type":"line","id":"nj-40233","name":"NJ 40233","mode":"train","public":true},"id":"8103107-2019-06-10t19-31-00-000-02-00-8308409-2019-06-11t09-22-00-000-02-00-nj-40233"}},{"to":"MILANO CITY (Italy)","byTrip":{"origin":{"type":"station","id":"8103107","name":"WIEN MEIDLING (Austria)","location":{"type":"location","longitude":16.333058,"latitude":48.174442}},"destination":{"type":"station","id":"8301701","name":"MILANO LAMBRATE (Italy)","location":{"type":"location","longitude":9.236947,"latitude":45.484725}},"departure":"2019-06-10T19:31:00.000+02:00","arrival":"2019-06-11T08:59:00.000+02:00","operator":"interrail","mode":"train","public":true,"line":{"type":"line","id":"nj-233","name":"NJ   233","mode":"train","public":true},"id":"8103107-2019-06-10t19-31-00-000-02-00-8301701-2019-06-11t08-59-00-000-02-00-nj-233"}},{"to":"WARSZAWA (Poland)","byTrip":{"origin":{"type":"station","id":"8101003","name":"WIEN HBF (Austria)","location":{"type":"location","longitude":16.375829,"latitude":48.185004}},"destination":{"type":"station","id":"5103360","name":"WARSZAWA CENTRALNA (Poland)","location":{"type":"location","longitude":21.002775,"latitude":52.228613}},"departure":"2019-06-10T14:10:00.000+02:00","arrival":"2019-06-10T21:08:00.000+02:00","operator":"interrail","mode":"train","public":true,"line":{"type":"line","id":"ec-102","name":"EC   102","mode":"train","public":true},"id":"8101003-2019-06-10t14-10-00-000-02-00-5103360-2019-06-10t21-08-00-000-02-00-ec-102"}},{"to":"BUCHAREST (Romania)","byTrip":{"origin":{"type":"station","id":"8101003","name":"WIEN HBF (Austria)","location":{"type":"location","longitude":16.375829,"latitude":48.185004}},"destination":{"type":"station","id":"5310017","name":"BUCURESTI NORD (Romania)","location":{"type":"location","longitude":26.074165,"latitude":44.44639}},"departure":"2019-06-10T19:42:00.000+02:00","arrival":"2019-06-11T16:06:00.000+02:00","operator":"interrail","mode":"train","public":true,"line":{"type":"line","id":"nt-347","name":"NT   347","mode":"train","public":true},"id":"8101003-2019-06-10t19-42-00-000-02-00-5310017-2019-06-11t16-06-00-000-02-00-nt-347"}},{"to":"KIEV-PASSAJIRSKII (Ukraine)","byTrip":{"origin":{"type":"station","id":"8101003","name":"WIEN HBF (Austria)","location":{"type":"location","longitude":16.375829,"latitude":48.185004}},"destination":{"type":"station","id":"2232030","name":"KIEV-PASSAJIRSKII (Ukraine)","location":{"type":"location","longitude":30.513973,"latitude":50.434357}},"departure":"2019-06-10T16:42:00.000+02:00","arrival":"2019-06-11T17:14:00.000+02:00","operator":"interrail","mode":"train","public":true,"line":{"type":"line","id":"ft-40147","name":"FT 40147","mode":"train","public":true},"id":"8101003-2019-06-10t16-42-00-000-02-00-2232030-2019-06-11t17-14-00-000-02-00-ft-40147"}},{"to":"KOELN (Germany)","byTrip":{"origin":{"type":"station","id":"8103107","name":"WIEN MEIDLING (Austria)","location":{"type":"location","longitude":16.333058,"latitude":48.174442}},"destination":{"type":"station","id":"8015458","name":"KOELN HBF (Germany)","location":{"type":"location","longitude":6.958613,"latitude":50.943056}},"departure":"2019-06-10T11:22:00.000+02:00","arrival":"2019-06-10T20:05:00.000+02:00","operator":"interrail","mode":"train","public":true,"line":{"type":"line","id":"ice-26","name":"ICE   26","mode":"train","public":true},"id":"8103107-2019-06-10t11-22-00-000-02-00-8015458-2019-06-10t20-05-00-000-02-00-ice-26"}},{"to":"HANNOVER HBF (Germany)","byTrip":{"origin":{"type":"station","id":"8103107","name":"WIEN MEIDLING (Austria)","location":{"type":"location","longitude":16.333058,"latitude":48.174442}},"destination":{"type":"station","id":"8013552","name":"HANNOVER HBF (Germany)","location":{"type":"location","longitude":9.741107,"latitude":52.376665}},"departure":"2019-06-10T13:22:00.000+02:00","arrival":"2019-06-10T20:32:00.000+02:00","operator":"interrail","mode":"train","public":true,"line":{"type":"line","id":"ice-90","name":"ICE   90","mode":"train","public":true},"id":"8103107-2019-06-10t13-22-00-000-02-00-8013552-2019-06-10t20-32-00-000-02-00-ice-90"}},{"to":"FRANKFURT AM MAIN FLUGHAFEN FERNBAHNHOF (Germany)","byTrip":{"origin":{"type":"station","id":"8103107","name":"WIEN MEIDLING (Austria)","location":{"type":"location","longitude":16.333058,"latitude":48.174442}},"destination":{"type":"station","id":"8061676","name":"FRANKFURT(M) FLUGHAFEN FERNBF (Germany)","location":{"type":"location","longitude":8.57028,"latitude":50.053052}},"departure":"2019-06-10T11:22:00.000+02:00","arrival":"2019-06-10T17:55:00.000+02:00","operator":"interrail","mode":"train","public":true,"line":{"type":"line","id":"ice-26","name":"ICE   26","mode":"train","public":true},"id":"8103107-2019-06-10t11-22-00-000-02-00-8061676-2019-06-10t17-55-00-000-02-00-ice-26"}},{"to":"ESSEN HBF (Germany)","byTrip":{"origin":{"type":"station","id":"8103107","name":"WIEN MEIDLING (Austria)","location":{"type":"location","longitude":16.333058,"latitude":48.174442}},"destination":{"type":"station","id":"8010184","name":"ESSEN HBF (Germany)","location":{"type":"location","longitude":7.014723,"latitude":51.451387}},"departure":"2019-06-10T15:22:00.000+02:00","arrival":"2019-06-11T00:56:00.000+02:00","operator":"interrail","mode":"train","public":true,"line":{"type":"line","id":"ice-22","name":"ICE   22","mode":"train","public":true},"id":"8103107-2019-06-10t15-22-00-000-02-00-8010184-2019-06-11t00-56-00-000-02-00-ice-22"}},{"to":"DUESSELDORF HBF (Germany)","byTrip":{"origin":{"type":"station","id":"8103107","name":"WIEN MEIDLING (Austria)","location":{"type":"location","longitude":16.333058,"latitude":48.174442}},"destination":{"type":"station","id":"8008094","name":"DUESSELDORF HBF (Germany)","location":{"type":"location","longitude":6.794443,"latitude":51.219996}},"departure":"2019-06-10T15:22:00.000+02:00","arrival":"2019-06-11T00:30:00.000+02:00","operator":"interrail","mode":"train","public":true,"line":{"type":"line","id":"ice-22","name":"ICE   22","mode":"train","public":true},"id":"8103107-2019-06-10t15-22-00-000-02-00-8008094-2019-06-11t00-30-00-000-02-00-ice-22"}},{"to":"DUISBURG HBF (Germany)","byTrip":{"origin":{"type":"station","id":"8103107","name":"WIEN MEIDLING (Austria)","location":{"type":"location","longitude":16.333058,"latitude":48.174442}},"destination":{"type":"station","id":"8010316","name":"DUISBURG HBF (Germany)","location":{"type":"location","longitude":6.775835,"latitude":51.429723}},"departure":"2019-06-10T15:22:00.000+02:00","arrival":"2019-06-11T00:44:00.000+02:00","operator":"interrail","mode":"train","public":true,"line":{"type":"line","id":"ice-22","name":"ICE   22","mode":"train","public":true},"id":"8103107-2019-06-10t15-22-00-000-02-00-8010316-2019-06-11t00-44-00-000-02-00-ice-22"}},{"to":"DORTMUND HBF (Germany)","byTrip":{"origin":{"type":"station","id":"8103107","name":"WIEN MEIDLING (Austria)","location":{"type":"location","longitude":16.333058,"latitude":48.174442}},"destination":{"type":"station","id":"8010053","name":"DORTMUND HBF (Germany)","location":{"type":"location","longitude":7.459168,"latitude":51.517782}},"departure":"2019-06-10T11:22:00.000+02:00","arrival":"2019-06-10T21:20:00.000+02:00","operator":"interrail","mode":"train","public":true,"line":{"type":"line","id":"ice-26","name":"ICE   26","mode":"train","public":true},"id":"8103107-2019-06-10t11-22-00-000-02-00-8010053-2019-06-10t21-20-00-000-02-00-ice-26"}},{"to":"ZAGREB GLAVNI KOL. (Croatia)","byTrip":{"origin":{"type":"station","id":"8103107","name":"WIEN MEIDLING (Austria)","location":{"type":"location","longitude":16.333058,"latitude":48.174442}},"destination":{"type":"station","id":"7872480","name":"ZAGREB GLAVNI KOL. (Croatia)","location":{"type":"location","longitude":15.978892,"latitude":45.804445}},"departure":"2019-06-10T16:05:00.000+02:00","arrival":"2019-06-10T22:41:00.000+02:00","operator":"interrail","mode":"train","public":true,"line":{"type":"line","id":"ec-1259","name":"EC  1259","mode":"train","public":true},"id":"8103107-2019-06-10t16-05-00-000-02-00-7872480-2019-06-10t22-41-00-000-02-00-ec-1259"}},{"to":"KRAKOW GLOWNY (Poland)","byTrip":{"origin":{"type":"station","id":"8101003","name":"WIEN HBF (Austria)","location":{"type":"location","longitude":16.375829,"latitude":48.185004}},"destination":{"type":"station","id":"5108041","name":"KRAKOW GLOWNY (Poland)","location":{"type":"location","longitude":19.947774,"latitude":50.065835}},"departure":"2019-06-10T22:10:00.000+02:00","arrival":"2019-06-11T06:15:00.000+02:00","operator":"interrail","mode":"train","public":true,"line":{"type":"line","id":"en-40456","name":"EN 40456","mode":"train","public":true},"id":"8101003-2019-06-10t22-10-00-000-02-00-5108041-2019-06-11t06-15-00-000-02-00-en-40456"}},{"to":"NUERNBERG (Germany)","byTrip":{"origin":{"type":"station","id":"8103107","name":"WIEN MEIDLING (Austria)","location":{"type":"location","longitude":16.333058,"latitude":48.174442}},"destination":{"type":"station","id":"8022193","name":"NUERNBERG HBF (Germany)","location":{"type":"location","longitude":11.083052,"latitude":49.445552}},"departure":"2019-06-10T11:22:00.000+02:00","arrival":"2019-06-10T15:27:00.000+02:00","operator":"interrail","mode":"train","public":true,"line":{"type":"line","id":"ice-26","name":"ICE   26","mode":"train","public":true},"id":"8103107-2019-06-10t11-22-00-000-02-00-8022193-2019-06-10t15-27-00-000-02-00-ice-26"}},{"to":"BRATISLAVA (Slovakia)","byTrip":{"origin":{"type":"station","id":"8101003","name":"WIEN HBF (Austria)","location":{"type":"location","longitude":16.375829,"latitude":48.185004}},"destination":{"type":"station","id":"5614576","name":"BRATISLAVA-PETRZALKA (Slovakia)","location":{"type":"location","longitude":17.098885,"latitude":48.12083}},"departure":"2019-06-10T10:45:00.000+02:00","arrival":"2019-06-10T11:44:00.000+02:00","operator":"interrail","mode":"train","public":true,"line":{"type":"line","id":"re-7619","name":"RE  7619","mode":"train","public":true},"id":"8101003-2019-06-10t10-45-00-000-02-00-5614576-2019-06-10t11-44-00-000-02-00-re-7619"}},{"to":"BOCHUM HBF (Germany)","byTrip":{"origin":{"type":"station","id":"8103107","name":"WIEN MEIDLING (Austria)","location":{"type":"location","longitude":16.333058,"latitude":48.174442}},"destination":{"type":"station","id":"8010179","name":"BOCHUM HBF (Germany)","location":{"type":"location","longitude":7.223336,"latitude":51.478607}},"departure":"2019-06-10T15:22:00.000+02:00","arrival":"2019-06-11T01:07:00.000+02:00","operator":"interrail","mode":"train","public":true,"line":{"type":"line","id":"ice-22","name":"ICE   22","mode":"train","public":true},"id":"8103107-2019-06-10t15-22-00-000-02-00-8010179-2019-06-11t01-07-00-000-02-00-ice-22"}},{"to":"BRNO DOLNI NADRAZI (Czech Republic)","byTrip":{"origin":{"type":"station","id":"8101003","name":"WIEN HBF (Austria)","location":{"type":"location","longitude":16.375829,"latitude":48.185004}},"destination":{"type":"station","id":"5438015","name":"BRNO DOLNI NADRAZI (Czech Republic)","location":{"type":"location","longitude":16.616111,"latitude":49.18278}},"departure":"2019-06-10T11:10:00.000+02:00","arrival":"2019-06-10T12:35:00.000+02:00","operator":"interrail","mode":"train","public":true,"line":{"type":"line","id":"rj-74","name":"RJ    74","mode":"train","public":true},"id":"8101003-2019-06-10t11-10-00-000-02-00-5438015-2019-06-10t12-35-00-000-02-00-rj-74"}},{"to":"WUPPERTAL HBF (Germany)","byTrip":{"origin":{"type":"station","id":"8103107","name":"WIEN MEIDLING (Austria)","location":{"type":"location","longitude":16.333058,"latitude":48.174442}},"destination":{"type":"station","id":"8008143","name":"WUPPERTAL HBF (Germany)","location":{"type":"location","longitude":7.149445,"latitude":51.254443}},"departure":"2019-06-10T11:22:00.000+02:00","arrival":"2019-06-10T20:41:00.000+02:00","operator":"interrail","mode":"train","public":true,"line":{"type":"line","id":"ice-26","name":"ICE   26","mode":"train","public":true},"id":"8103107-2019-06-10t11-22-00-000-02-00-8008143-2019-06-10t20-41-00-000-02-00-ice-26"}},{"to":"FIRENZE CITY (Italy)","byTrip":{"origin":{"type":"station","id":"8103107","name":"WIEN MEIDLING (Austria)","location":{"type":"location","longitude":16.333058,"latitude":48.174442}},"destination":{"type":"station","id":"8306421","name":"FIRENZE S.M.N. (Italy)","location":{"type":"location","longitude":11.247501,"latitude":43.776667}},"departure":"2019-06-10T19:31:00.000+02:00","arrival":"2019-06-11T06:14:00.000+02:00","operator":"interrail","mode":"train","public":true,"line":{"type":"line","id":"nj-40233","name":"NJ 40233","mode":"train","public":true},"id":"8103107-2019-06-10t19-31-00-000-02-00-8306421-2019-06-11t06-14-00-000-02-00-nj-40233"}},{"to":"BOLOGNA CITY (Italy)","byTrip":{"origin":{"type":"station","id":"8103107","name":"WIEN MEIDLING (Austria)","location":{"type":"location","longitude":16.333058,"latitude":48.174442}},"destination":{"type":"station","id":"8305043","name":"BOLOGNA CENTRALE (Italy)","location":{"type":"location","longitude":11.341942,"latitude":44.506393}},"departure":"2019-06-10T19:31:00.000+02:00","arrival":"2019-06-11T05:17:00.000+02:00","operator":"interrail","mode":"train","public":true,"line":{"type":"line","id":"nj-40233","name":"NJ 40233","mode":"train","public":true},"id":"8103107-2019-06-10t19-31-00-000-02-00-8305043-2019-06-11t05-17-00-000-02-00-nj-40233"}}],"PRAGUE (Czech Republic)":[{"to":"VIENNA (Austria)","byTrip":{"origin":{"type":"station","id":"8101003","name":"WIEN HBF (Austria)","location":{"type":"location","longitude":16.375829,"latitude":48.185004}},"destination":{"type":"station","id":"5457076","name":"PRAGUE HLAVNI NADRAZI (Czech Republic)","location":{"type":"location","longitude":14.435274,"latitude":50.081386}},"departure":"2019-06-10T11:10:00.000+02:00","arrival":"2019-06-10T15:07:00.000+02:00","operator":"interrail","mode":"train","public":true,"line":{"type":"line","id":"rj-74","name":"RJ    74","mode":"train","public":true},"id":"8101003-2019-06-10t11-10-00-000-02-00-5457076-2019-06-10t15-07-00-000-02-00-rj-74"}},{"to":"BERLIN (Germany)","byTrip":{"origin":{"type":"station","id":"5457076","name":"PRAGUE HLAVNI NADRAZI (Czech Republic)","location":{"type":"location","longitude":14.435274,"latitude":50.081386}},"destination":{"type":"station","id":"8065971","name":"BERLIN SUEDKREUZ (Germany)","location":{"type":"location","longitude":13.365279,"latitude":52.474998}},"departure":"2019-06-10T10:32:00.000+02:00","arrival":"2019-06-10T14:36:00.000+02:00","operator":"interrail","mode":"train","public":true,"line":{"type":"line","id":"ec-174","name":"EC   174","mode":"train","public":true},"id":"5457076-2019-06-10t10-32-00-000-02-00-8065971-2019-06-10t14-36-00-000-02-00-ec-174"}},{"to":"BUDAPEST (Hungary)","byTrip":{"origin":{"type":"station","id":"5457076","name":"PRAGUE HLAVNI NADRAZI (Czech Republic)","location":{"type":"location","longitude":14.435274,"latitude":50.081386}},"destination":{"type":"station","id":"5510033","name":"BUDAPEST-NYUGATI (Hungary)","location":{"type":"location","longitude":19.057437,"latitude":47.510678}},"departure":"2019-06-10T11:50:00.000+02:00","arrival":"2019-06-10T18:20:00.000+02:00","operator":"interrail","mode":"train","public":true,"line":{"type":"line","id":"ec-279","name":"EC   279","mode":"train","public":true},"id":"5457076-2019-06-10t11-50-00-000-02-00-5510033-2019-06-10t18-20-00-000-02-00-ec-279"}},{"to":"WARSZAWA (Poland)","byTrip":{"origin":{"type":"station","id":"5457076","name":"PRAGUE HLAVNI NADRAZI (Czech Republic)","location":{"type":"location","longitude":14.435274,"latitude":50.081386}},"destination":{"type":"station","id":"5103360","name":"WARSZAWA CENTRALNA (Poland)","location":{"type":"location","longitude":21.002775,"latitude":52.228613}},"departure":"2019-06-10T14:24:00.000+02:00","arrival":"2019-06-10T22:35:00.000+02:00","operator":"interrail","mode":"train","public":true,"line":{"type":"line","id":"ec-117","name":"EC   117","mode":"train","public":true},"id":"5457076-2019-06-10t14-24-00-000-02-00-5103360-2019-06-10t22-35-00-000-02-00-ec-117"}},{"to":"NUERNBERG (Germany)","byTrip":{"origin":{"type":"station","id":"5457077","name":"PRAGUE DB-BUS (Czech Republic)","location":{"type":"location","longitude":14.435004,"latitude":50.083337}},"destination":{"type":"station","id":"8012968","name":"NUERNBERG ZOB (Germany)","location":{"type":"location","longitude":11.08556,"latitude":49.447782}},"departure":"2019-06-10T11:35:00.000+02:00","arrival":"2019-06-10T15:10:00.000+02:00","operator":"interrail","mode":"bus","public":true,"line":{"type":"line","id":"bus42011","name":"BUS42011","mode":"bus","public":true},"id":"5457077-2019-06-10t11-35-00-000-02-00-8012968-2019-06-10t15-10-00-000-02-00-bus42011"}},{"to":"DRESDEN HBF (Germany)","byTrip":{"origin":{"type":"station","id":"5457076","name":"PRAGUE HLAVNI NADRAZI (Czech Republic)","location":{"type":"location","longitude":14.435274,"latitude":50.081386}},"destination":{"type":"station","id":"8006050","name":"DRESDEN HBF (Germany)","location":{"type":"location","longitude":13.73194,"latitude":51.040553}},"departure":"2019-06-10T10:32:00.000+02:00","arrival":"2019-06-10T12:43:00.000+02:00","operator":"interrail","mode":"train","public":true,"line":{"type":"line","id":"ec-174","name":"EC   174","mode":"train","public":true},"id":"5457076-2019-06-10t10-32-00-000-02-00-8006050-2019-06-10t12-43-00-000-02-00-ec-174"}}],"Muenchen City (Germany)":[{"to":"VIENNA (Austria)","byTrip":{"origin":{"type":"station","id":"8103107","name":"WIEN MEIDLING (Austria)","location":{"type":"location","longitude":16.333058,"latitude":48.174442}},"destination":{"type":"station","id":"8020347","name":"MUENCHEN HBF (Germany)","location":{"type":"location","longitude":11.55833,"latitude":48.140274}},"departure":"2019-06-10T10:37:00.000+02:00","arrival":"2019-06-10T14:57:00.000+02:00","operator":"interrail","mode":"train","public":true,"line":{"type":"line","id":"ec-60","name":"EC    60","mode":"train","public":true},"id":"8103107-2019-06-10t10-37-00-000-02-00-8020347-2019-06-10t14-57-00-000-02-00-ec-60"}},{"to":"HAMBURG (Germany)","byTrip":{"origin":{"type":"station","id":"8020347","name":"MUENCHEN HBF (Germany)","location":{"type":"location","longitude":11.55833,"latitude":48.140274}},"destination":{"type":"station","id":"8001071","name":"HAMBURG HBF (Germany)","location":{"type":"location","longitude":10.006945,"latitude":53.552778}},"departure":"2019-06-10T11:20:00.000+02:00","arrival":"2019-06-10T16:54:00.000+02:00","operator":"interrail","mode":"train","public":true,"line":{"type":"line","id":"ice-588","name":"ICE  588","mode":"train","public":true},"id":"8020347-2019-06-10t11-20-00-000-02-00-8001071-2019-06-10t16-54-00-000-02-00-ice-588"}},{"to":"BERLIN (Germany)","byTrip":{"origin":{"type":"station","id":"8020347","name":"MUENCHEN HBF (Germany)","location":{"type":"location","longitude":11.55833,"latitude":48.140274}},"destination":{"type":"station","id":"8065971","name":"BERLIN SUEDKREUZ (Germany)","location":{"type":"location","longitude":13.365279,"latitude":52.474998}},"departure":"2019-06-10T10:43:00.000+02:00","arrival":"2019-06-10T15:22:00.000+02:00","operator":"interrail","mode":"train","public":true,"line":{"type":"line","id":"ice-508","name":"ICE  508","mode":"train","public":true},"id":"8020347-2019-06-10t10-43-00-000-02-00-8065971-2019-06-10t15-22-00-000-02-00-ice-508"}},{"to":"BUDAPEST (Hungary)","byTrip":{"origin":{"type":"station","id":"8020347","name":"MUENCHEN HBF (Germany)","location":{"type":"location","longitude":11.55833,"latitude":48.140274}},"destination":{"type":"station","id":"5501024","name":"BUDAPEST-KELENFOELD (Hungary)","location":{"type":"location","longitude":19.019997,"latitude":47.464447}},"departure":"2019-06-10T13:01:00.000+02:00","arrival":"2019-06-10T20:02:00.000+02:00","operator":"interrail","mode":"train","public":true,"line":{"type":"line","id":"ec-67","name":"EC    67","mode":"train","public":true},"id":"8020347-2019-06-10t13-01-00-000-02-00-5501024-2019-06-10t20-02-00-000-02-00-ec-67"}},{"to":"STUTTGART HBF (Germany)","byTrip":{"origin":{"type":"station","id":"8029034","name":"STUTTGART HBF (Germany)","location":{"type":"location","longitude":9.181663,"latitude":48.784171}},"destination":{"type":"station","id":"8020347","name":"MUENCHEN HBF (Germany)","location":{"type":"location","longitude":11.55833,"latitude":48.140274}},"departure":"2019-06-10T11:14:00.000+02:00","arrival":"2019-06-10T13:27:00.000+02:00","operator":"interrail","mode":"train","public":true,"line":{"type":"line","id":"ice-2533","name":"ICE 2533","mode":"train","public":true},"id":"8029034-2019-06-10t11-14-00-000-02-00-8020347-2019-06-10t13-27-00-000-02-00-ice-2533"}},{"to":"ESSEN HBF (Germany)","byTrip":{"origin":{"type":"station","id":"8020347","name":"MUENCHEN HBF (Germany)","location":{"type":"location","longitude":11.55833,"latitude":48.140274}},"destination":{"type":"station","id":"8010184","name":"ESSEN HBF (Germany)","location":{"type":"location","longitude":7.014723,"latitude":51.451387}},"departure":"2019-06-10T10:30:00.000+02:00","arrival":"2019-06-10T16:02:00.000+02:00","operator":"interrail","mode":"train","public":true,"line":{"type":"line","id":"ice-720","name":"ICE  720","mode":"train","public":true},"id":"8020347-2019-06-10t10-30-00-000-02-00-8010184-2019-06-10t16-02-00-000-02-00-ice-720"}},{"to":"DUISBURG HBF (Germany)","byTrip":{"origin":{"type":"station","id":"8020347","name":"MUENCHEN HBF (Germany)","location":{"type":"location","longitude":11.55833,"latitude":48.140274}},"destination":{"type":"station","id":"8010316","name":"DUISBURG HBF (Germany)","location":{"type":"location","longitude":6.775835,"latitude":51.429723}},"departure":"2019-06-10T10:30:00.000+02:00","arrival":"2019-06-10T15:49:00.000+02:00","operator":"interrail","mode":"train","public":true,"line":{"type":"line","id":"ice-720","name":"ICE  720","mode":"train","public":true},"id":"8020347-2019-06-10t10-30-00-000-02-00-8010316-2019-06-10t15-49-00-000-02-00-ice-720"}},{"to":"DORTMUND HBF (Germany)","byTrip":{"origin":{"type":"station","id":"8020347","name":"MUENCHEN HBF (Germany)","location":{"type":"location","longitude":11.55833,"latitude":48.140274}},"destination":{"type":"station","id":"8010053","name":"DORTMUND HBF (Germany)","location":{"type":"location","longitude":7.459168,"latitude":51.517782}},"departure":"2019-06-10T10:30:00.000+02:00","arrival":"2019-06-10T16:14:00.000+02:00","operator":"interrail","mode":"train","public":true,"line":{"type":"line","id":"ice-1224","name":"ICE 1224","mode":"train","public":true},"id":"8020347-2019-06-10t10-30-00-000-02-00-8010053-2019-06-10t16-14-00-000-02-00-ice-1224"}},{"to":"BREMEN HBF (Germany)","byTrip":{"origin":{"type":"station","id":"8020347","name":"MUENCHEN HBF (Germany)","location":{"type":"location","longitude":11.55833,"latitude":48.140274}},"destination":{"type":"station","id":"8013751","name":"BREMEN HBF (Germany)","location":{"type":"location","longitude":8.813887,"latitude":53.083613}},"departure":"2019-06-10T11:20:00.000+02:00","arrival":"2019-06-10T16:44:00.000+02:00","operator":"interrail","mode":"train","public":true,"line":{"type":"line","id":"ice-538","name":"ICE  538","mode":"train","public":true},"id":"8020347-2019-06-10t11-20-00-000-02-00-8013751-2019-06-10t16-44-00-000-02-00-ice-538"}},{"to":"ZAGREB GLAVNI KOL. (Croatia)","byTrip":{"origin":{"type":"station","id":"8020347","name":"MUENCHEN HBF (Germany)","location":{"type":"location","longitude":11.55833,"latitude":48.140274}},"destination":{"type":"station","id":"7872480","name":"ZAGREB GLAVNI KOL. (Croatia)","location":{"type":"location","longitude":15.978892,"latitude":45.804445}},"departure":"2019-06-10T22:36:00.000+02:00","arrival":"2019-06-11T08:35:00.000+02:00","operator":"interrail","mode":"train","public":true,"line":{"type":"line","id":"en-50463","name":"EN 50463","mode":"train","public":true},"id":"8020347-2019-06-10t22-36-00-000-02-00-7872480-2019-06-11t08-35-00-000-02-00-en-50463"}},{"to":"BOCHUM HBF (Germany)","byTrip":{"origin":{"type":"station","id":"8020347","name":"MUENCHEN HBF (Germany)","location":{"type":"location","longitude":11.55833,"latitude":48.140274}},"destination":{"type":"station","id":"8010179","name":"BOCHUM HBF (Germany)","location":{"type":"location","longitude":7.223336,"latitude":51.478607}},"departure":"2019-06-10T10:30:00.000+02:00","arrival":"2019-06-10T16:27:00.000+02:00","operator":"interrail","mode":"train","public":true,"line":{"type":"line","id":"ice-1224","name":"ICE 1224","mode":"train","public":true},"id":"8020347-2019-06-10t10-30-00-000-02-00-8010179-2019-06-10t16-27-00-000-02-00-ice-1224"}},{"to":"BOLOGNA CITY (Italy)","byTrip":{"origin":{"type":"station","id":"8020347","name":"MUENCHEN HBF (Germany)","location":{"type":"location","longitude":11.55833,"latitude":48.140274}},"destination":{"type":"station","id":"8305043","name":"BOLOGNA CENTRALE (Italy)","location":{"type":"location","longitude":11.341942,"latitude":44.506393}},"departure":"2019-06-10T13:35:00.000+02:00","arrival":"2019-06-10T20:16:00.000+02:00","operator":"interrail","mode":"train","public":true,"line":{"type":"line","id":"ecb-89","name":"ECB   89","mode":"train","public":true},"id":"8020347-2019-06-10t13-35-00-000-02-00-8305043-2019-06-10t20-16-00-000-02-00-ecb-89"}}],"HAMBURG (Germany)":[{"to":"VIENNA (Austria)","byTrip":{"origin":{"type":"station","id":"8103107","name":"WIEN MEIDLING (Austria)","location":{"type":"location","longitude":16.333058,"latitude":48.174442}},"destination":{"type":"station","id":"8001071","name":"HAMBURG HBF (Germany)","location":{"type":"location","longitude":10.006945,"latitude":53.552778}},"departure":"2019-06-10T13:22:00.000+02:00","arrival":"2019-06-10T21:53:00.000+02:00","operator":"interrail","mode":"train","public":true,"line":{"type":"line","id":"ice-90","name":"ICE   90","mode":"train","public":true},"id":"8103107-2019-06-10t13-22-00-000-02-00-8001071-2019-06-10t21-53-00-000-02-00-ice-90"}},{"to":"Muenchen City (Germany)","byTrip":{"origin":{"type":"station","id":"8020347","name":"MUENCHEN HBF (Germany)","location":{"type":"location","longitude":11.55833,"latitude":48.140274}},"destination":{"type":"station","id":"8001071","name":"HAMBURG HBF (Germany)","location":{"type":"location","longitude":10.006945,"latitude":53.552778}},"departure":"2019-06-10T11:20:00.000+02:00","arrival":"2019-06-10T16:54:00.000+02:00","operator":"interrail","mode":"train","public":true,"line":{"type":"line","id":"ice-588","name":"ICE  588","mode":"train","public":true},"id":"8020347-2019-06-10t11-20-00-000-02-00-8001071-2019-06-10t16-54-00-000-02-00-ice-588"}},{"to":"BERLIN (Germany)","byTrip":{"origin":{"type":"station","id":"8001071","name":"HAMBURG HBF (Germany)","location":{"type":"location","longitude":10.006945,"latitude":53.552778}},"destination":{"type":"station","id":"8031922","name":"BERLIN HBF (TIEF) (Germany)","location":{"type":"location","longitude":13.369441,"latitude":52.525553}},"departure":"2019-06-10T10:35:00.000+02:00","arrival":"2019-06-10T12:20:00.000+02:00","operator":"interrail","mode":"train","public":true,"line":{"type":"line","id":"ice-705","name":"ICE  705","mode":"train","public":true},"id":"8001071-2019-06-10t10-35-00-000-02-00-8031922-2019-06-10t12-20-00-000-02-00-ice-705"}},{"to":"Copenhagen (Denmark)","byTrip":{"origin":{"type":"station","id":"8001071","name":"HAMBURG HBF (Germany)","location":{"type":"location","longitude":10.006945,"latitude":53.552778}},"destination":{"type":"station","id":"8600626","name":"Koebenhavn H (Denmark)","location":{"type":"location","longitude":12.565553,"latitude":55.673054}},"departure":"2019-06-10T23:42:00.000+02:00","arrival":"2019-06-11T06:53:00.000+02:00","operator":"interrail","mode":"train","public":true,"line":{"type":"line","id":"ic-431","name":"IC   431","mode":"train","public":true},"id":"8001071-2019-06-10t23-42-00-000-02-00-8600626-2019-06-11t06-53-00-000-02-00-ic-431"}},{"to":"KOELN (Germany)","byTrip":{"origin":{"type":"station","id":"8015458","name":"KOELN HBF (Germany)","location":{"type":"location","longitude":6.958613,"latitude":50.943056}},"destination":{"type":"station","id":"8001071","name":"HAMBURG HBF (Germany)","location":{"type":"location","longitude":10.006945,"latitude":53.552778}},"departure":"2019-06-10T11:09:00.000+02:00","arrival":"2019-06-10T15:12:00.000+02:00","operator":"interrail","mode":"train","public":true,"line":{"type":"line","id":"ic-2216","name":"IC  2216","mode":"train","public":true},"id":"8015458-2019-06-10t11-09-00-000-02-00-8001071-2019-06-10t15-12-00-000-02-00-ic-2216"}},{"to":"ESSEN HBF (Germany)","byTrip":{"origin":{"type":"station","id":"8001071","name":"HAMBURG HBF (Germany)","location":{"type":"location","longitude":10.006945,"latitude":53.552778}},"destination":{"type":"station","id":"8010184","name":"ESSEN HBF (Germany)","location":{"type":"location","longitude":7.014723,"latitude":51.451387}},"departure":"2019-06-10T10:46:00.000+02:00","arrival":"2019-06-10T13:58:00.000+02:00","operator":"interrail","mode":"train","public":true,"line":{"type":"line","id":"ic-2217","name":"IC  2217","mode":"train","public":true},"id":"8001071-2019-06-10t10-46-00-000-02-00-8010184-2019-06-10t13-58-00-000-02-00-ic-2217"}},{"to":"DUESSELDORF HBF (Germany)","byTrip":{"origin":{"type":"station","id":"8001071","name":"HAMBURG HBF (Germany)","location":{"type":"location","longitude":10.006945,"latitude":53.552778}},"destination":{"type":"station","id":"8008094","name":"DUESSELDORF HBF (Germany)","location":{"type":"location","longitude":6.794443,"latitude":51.219996}},"departure":"2019-06-10T10:46:00.000+02:00","arrival":"2019-06-10T14:25:00.000+02:00","operator":"interrail","mode":"train","public":true,"line":{"type":"line","id":"ic-2217","name":"IC  2217","mode":"train","public":true},"id":"8001071-2019-06-10t10-46-00-000-02-00-8008094-2019-06-10t14-25-00-000-02-00-ic-2217"}},{"to":"DUISBURG HBF (Germany)","byTrip":{"origin":{"type":"station","id":"8001071","name":"HAMBURG HBF (Germany)","location":{"type":"location","longitude":10.006945,"latitude":53.552778}},"destination":{"type":"station","id":"8010316","name":"DUISBURG HBF (Germany)","location":{"type":"location","longitude":6.775835,"latitude":51.429723}},"departure":"2019-06-10T10:46:00.000+02:00","arrival":"2019-06-10T14:11:00.000+02:00","operator":"interrail","mode":"train","public":true,"line":{"type":"line","id":"ic-2217","name":"IC  2217","mode":"train","public":true},"id":"8001071-2019-06-10t10-46-00-000-02-00-8010316-2019-06-10t14-11-00-000-02-00-ic-2217"}},{"to":"DORTMUND HBF (Germany)","byTrip":{"origin":{"type":"station","id":"8001071","name":"HAMBURG HBF (Germany)","location":{"type":"location","longitude":10.006945,"latitude":53.552778}},"destination":{"type":"station","id":"8010053","name":"DORTMUND HBF (Germany)","location":{"type":"location","longitude":7.459168,"latitude":51.517782}},"departure":"2019-06-10T11:46:00.000+02:00","arrival":"2019-06-10T14:36:00.000+02:00","operator":"interrail","mode":"train","public":true,"line":{"type":"line","id":"ic-2027","name":"IC  2027","mode":"train","public":true},"id":"8001071-2019-06-10t11-46-00-000-02-00-8010053-2019-06-10t14-36-00-000-02-00-ic-2027"}},{"to":"BREMEN HBF (Germany)","byTrip":{"origin":{"type":"station","id":"8001071","name":"HAMBURG HBF (Germany)","location":{"type":"location","longitude":10.006945,"latitude":53.552778}},"destination":{"type":"station","id":"8013751","name":"BREMEN HBF (Germany)","location":{"type":"location","longitude":8.813887,"latitude":53.083613}},"departure":"2019-06-10T10:46:00.000+02:00","arrival":"2019-06-10T11:41:00.000+02:00","operator":"interrail","mode":"train","public":true,"line":{"type":"line","id":"ic-2217","name":"IC  2217","mode":"train","public":true},"id":"8001071-2019-06-10t10-46-00-000-02-00-8013751-2019-06-10t11-41-00-000-02-00-ic-2217"}},{"to":"ZUERICH HB (Switzerland)","byTrip":{"origin":{"type":"station","id":"8503000","name":"ZUERICH HB (Switzerland)","location":{"type":"location","longitude":8.540274,"latitude":47.37806}},"destination":{"type":"station","id":"8001071","name":"HAMBURG HBF (Germany)","location":{"type":"location","longitude":10.006945,"latitude":53.552778}},"departure":"2019-06-10T12:00:00.000+02:00","arrival":"2019-06-10T20:10:00.000+02:00","operator":"interrail","mode":"train","public":true,"line":{"type":"line","id":"ice-72","name":"ICE   72","mode":"train","public":true},"id":"8503000-2019-06-10t12-00-00-000-02-00-8001071-2019-06-10t20-10-00-000-02-00-ice-72"}},{"to":"BONN HBF (Germany)","byTrip":{"origin":{"type":"station","id":"8001071","name":"HAMBURG HBF (Germany)","location":{"type":"location","longitude":10.006945,"latitude":53.552778}},"destination":{"type":"station","id":"8015485","name":"BONN HBF (Germany)","location":{"type":"location","longitude":7.097226,"latitude":50.731945}},"departure":"2019-06-10T10:46:00.000+02:00","arrival":"2019-06-10T15:12:00.000+02:00","operator":"interrail","mode":"train","public":true,"line":{"type":"line","id":"ic-2217","name":"IC  2217","mode":"train","public":true},"id":"8001071-2019-06-10t10-46-00-000-02-00-8015485-2019-06-10t15-12-00-000-02-00-ic-2217"}}],"BUDAPEST (Hungary)":[{"to":"VIENNA (Austria)","byTrip":{"origin":{"type":"station","id":"8101003","name":"WIEN HBF (Austria)","location":{"type":"location","longitude":16.375829,"latitude":48.185004}},"destination":{"type":"station","id":"5501024","name":"BUDAPEST-KELENFOELD (Hungary)","location":{"type":"location","longitude":19.019997,"latitude":47.464447}},"departure":"2019-06-10T11:40:00.000+02:00","arrival":"2019-06-10T14:02:00.000+02:00","operator":"interrail","mode":"train","public":true,"line":{"type":"line","id":"ec-61","name":"EC    61","mode":"train","public":true},"id":"8101003-2019-06-10t11-40-00-000-02-00-5501024-2019-06-10t14-02-00-000-02-00-ec-61"}},{"to":"PRAGUE (Czech Republic)","byTrip":{"origin":{"type":"station","id":"5457076","name":"PRAGUE HLAVNI NADRAZI (Czech Republic)","location":{"type":"location","longitude":14.435274,"latitude":50.081386}},"destination":{"type":"station","id":"5510033","name":"BUDAPEST-NYUGATI (Hungary)","location":{"type":"location","longitude":19.057437,"latitude":47.510678}},"departure":"2019-06-10T11:50:00.000+02:00","arrival":"2019-06-10T18:20:00.000+02:00","operator":"interrail","mode":"train","public":true,"line":{"type":"line","id":"ec-279","name":"EC   279","mode":"train","public":true},"id":"5457076-2019-06-10t11-50-00-000-02-00-5510033-2019-06-10t18-20-00-000-02-00-ec-279"}},{"to":"Muenchen City (Germany)","byTrip":{"origin":{"type":"station","id":"8020347","name":"MUENCHEN HBF (Germany)","location":{"type":"location","longitude":11.55833,"latitude":48.140274}},"destination":{"type":"station","id":"5501024","name":"BUDAPEST-KELENFOELD (Hungary)","location":{"type":"location","longitude":19.019997,"latitude":47.464447}},"departure":"2019-06-10T13:01:00.000+02:00","arrival":"2019-06-10T20:02:00.000+02:00","operator":"interrail","mode":"train","public":true,"line":{"type":"line","id":"ec-67","name":"EC    67","mode":"train","public":true},"id":"8020347-2019-06-10t13-01-00-000-02-00-5501024-2019-06-10t20-02-00-000-02-00-ec-67"}},{"to":"KIEV-PASSAJIRSKII (Ukraine)","byTrip":{"origin":{"type":"station","id":"5510017","name":"BUDAPEST-KELETI (Hungary)","location":{"type":"location","longitude":19.085241,"latitude":47.500628}},"destination":{"type":"station","id":"2232030","name":"KIEV-PASSAJIRSKII (Ukraine)","location":{"type":"location","longitude":30.513973,"latitude":50.434357}},"departure":"2019-06-10T19:40:00.000+02:00","arrival":"2019-06-11T17:14:00.000+02:00","operator":"interrail","mode":"train","public":true,"line":{"type":"line","id":"ft-40147","name":"FT 40147","mode":"train","public":true},"id":"5510017-2019-06-10t19-40-00-000-02-00-2232030-2019-06-11t17-14-00-000-02-00-ft-40147"}},{"to":"MUKACHEVO (Ukraine)","byTrip":{"origin":{"type":"station","id":"5510017","name":"BUDAPEST-KELETI (Hungary)","location":{"type":"location","longitude":19.085241,"latitude":47.500628}},"destination":{"type":"station","id":"2238000","name":"MUKACHEVO (Ukraine)","location":{"type":"location","longitude":22.724236,"latitude":48.438994}},"departure":"2019-06-10T19:40:00.000+02:00","arrival":"2019-06-11T06:19:00.000+02:00","operator":"interrail","mode":"train","public":true,"line":{"type":"line","id":"ft-40147","name":"FT 40147","mode":"train","public":true},"id":"5510017-2019-06-10t19-40-00-000-02-00-2238000-2019-06-11t06-19-00-000-02-00-ft-40147"}},{"to":"LVOV (Ukraine)","byTrip":{"origin":{"type":"station","id":"5510017","name":"BUDAPEST-KELETI (Hungary)","location":{"type":"location","longitude":19.085241,"latitude":47.500628}},"destination":{"type":"station","id":"2237000","name":"LVOV (Ukraine)","location":{"type":"location","longitude":24.011995,"latitude":49.841671}},"departure":"2019-06-10T19:40:00.000+02:00","arrival":"2019-06-11T10:14:00.000+02:00","operator":"interrail","mode":"train","public":true,"line":{"type":"line","id":"ft-40147","name":"FT 40147","mode":"train","public":true},"id":"5510017-2019-06-10t19-40-00-000-02-00-2237000-2019-06-11t10-14-00-000-02-00-ft-40147"}},{"to":"DRESDEN HBF (Germany)","byTrip":{"origin":{"type":"station","id":"8006050","name":"DRESDEN HBF (Germany)","location":{"type":"location","longitude":13.73194,"latitude":51.040553}},"destination":{"type":"station","id":"5510033","name":"BUDAPEST-NYUGATI (Hungary)","location":{"type":"location","longitude":19.057437,"latitude":47.510678}},"departure":"2019-06-10T11:10:00.000+02:00","arrival":"2019-06-10T20:20:00.000+02:00","operator":"interrail","mode":"train","public":true,"line":{"type":"line","id":"ec-173","name":"EC   173","mode":"train","public":true},"id":"8006050-2019-06-10t11-10-00-000-02-00-5510033-2019-06-10t20-20-00-000-02-00-ec-173"}},{"to":"ZUERICH HB (Switzerland)","byTrip":{"origin":{"type":"station","id":"8503000","name":"ZUERICH HB (Switzerland)","location":{"type":"location","longitude":8.540274,"latitude":47.37806}},"destination":{"type":"station","id":"5501024","name":"BUDAPEST-KELENFOELD (Hungary)","location":{"type":"location","longitude":19.019997,"latitude":47.464447}},"departure":"2019-06-10T21:40:00.000+02:00","arrival":"2019-06-11T10:15:00.000+02:00","operator":"interrail","mode":"train","public":true,"line":{"type":"line","id":"en-40467","name":"EN 40467","mode":"train","public":true},"id":"8503000-2019-06-10t21-40-00-000-02-00-5501024-2019-06-11t10-15-00-000-02-00-en-40467"}}],"Rome Termini (Italy)":[{"to":"VIENNA (Austria)","byTrip":{"origin":{"type":"station","id":"8103107","name":"WIEN MEIDLING (Austria)","location":{"type":"location","longitude":16.333058,"latitude":48.174442}},"destination":{"type":"station","id":"8308409","name":"ROMA TERMINI (Italy)","location":{"type":"location","longitude":12.501667,"latitude":41.900555}},"departure":"2019-06-10T19:31:00.000+02:00","arrival":"2019-06-11T09:22:00.000+02:00","operator":"interrail","mode":"train","public":true,"line":{"type":"line","id":"nj-40233","name":"NJ 40233","mode":"train","public":true},"id":"8103107-2019-06-10t19-31-00-000-02-00-8308409-2019-06-11t09-22-00-000-02-00-nj-40233"}},{"to":"TURIN (Italy)","byTrip":{"origin":{"type":"station","id":"8300035","name":"TORINO PORTA SUSA (Italy)","location":{"type":"location","longitude":7.666945,"latitude":45.07417}},"destination":{"type":"station","id":"8308409","name":"ROMA TERMINI (Italy)","location":{"type":"location","longitude":12.501667,"latitude":41.900555}},"departure":"2019-06-10T12:00:00.000+02:00","arrival":"2019-06-10T15:55:00.000+02:00","operator":"interrail","mode":"train","public":true,"line":{"type":"line","id":"fr-9635","name":"FR  9635","mode":"train","public":true},"id":"8300035-2019-06-10t12-00-00-000-02-00-8308409-2019-06-10t15-55-00-000-02-00-fr-9635"}},{"to":"BOLOGNA CITY (Italy)","byTrip":{"origin":{"type":"station","id":"8308409","name":"ROMA TERMINI (Italy)","location":{"type":"location","longitude":12.501667,"latitude":41.900555}},"destination":{"type":"station","id":"8305043","name":"BOLOGNA CENTRALE (Italy)","location":{"type":"location","longitude":11.341942,"latitude":44.506393}},"departure":"2019-06-10T10:30:00.000+02:00","arrival":"2019-06-10T12:25:00.000+02:00","operator":"interrail","mode":"train","public":true,"line":{"type":"line","id":"fr-9620","name":"FR  9620","mode":"train","public":true},"id":"8308409-2019-06-10t10-30-00-000-02-00-8305043-2019-06-10t12-25-00-000-02-00-fr-9620"}}],"MILANO CITY (Italy)":[{"to":"VIENNA (Austria)","byTrip":{"origin":{"type":"station","id":"8103107","name":"WIEN MEIDLING (Austria)","location":{"type":"location","longitude":16.333058,"latitude":48.174442}},"destination":{"type":"station","id":"8301701","name":"MILANO LAMBRATE (Italy)","location":{"type":"location","longitude":9.236947,"latitude":45.484725}},"departure":"2019-06-10T19:31:00.000+02:00","arrival":"2019-06-11T08:59:00.000+02:00","operator":"interrail","mode":"train","public":true,"line":{"type":"line","id":"nj-233","name":"NJ   233","mode":"train","public":true},"id":"8103107-2019-06-10t19-31-00-000-02-00-8301701-2019-06-11t08-59-00-000-02-00-nj-233"}},{"to":"TURIN (Italy)","byTrip":{"origin":{"type":"station","id":"8300035","name":"TORINO PORTA SUSA (Italy)","location":{"type":"location","longitude":7.666945,"latitude":45.07417}},"destination":{"type":"station","id":"8301700","name":"MILANO CENTRALE (Italy)","location":{"type":"location","longitude":9.204163,"latitude":45.486388}},"departure":"2019-06-10T10:43:00.000+02:00","arrival":"2019-06-10T11:33:00.000+02:00","operator":"interrail","mode":"train","public":true,"line":{"type":"line","id":"fr-9723","name":"FR  9723","mode":"train","public":true},"id":"8300035-2019-06-10t10-43-00-000-02-00-8301700-2019-06-10t11-33-00-000-02-00-fr-9723"}},{"to":"GENOVA CITY (Italy)","byTrip":{"origin":{"type":"station","id":"8301700","name":"MILANO CENTRALE (Italy)","location":{"type":"location","longitude":9.204163,"latitude":45.486388}},"destination":{"type":"station","id":"8304700","name":"GENOVA P.ZA PRINCIPE (Italy)","location":{"type":"location","longitude":8.920553,"latitude":44.417778}},"departure":"2019-06-10T11:10:00.000+02:00","arrival":"2019-06-10T12:42:00.000+02:00","operator":"interrail","mode":"train","public":true,"line":{"type":"line","id":"ec-143","name":"EC   143","mode":"train","public":true},"id":"8301700-2019-06-10t11-10-00-000-02-00-8304700-2019-06-10t12-42-00-000-02-00-ec-143"}},{"to":"FIRENZE CITY (Italy)","byTrip":{"origin":{"type":"station","id":"8301700","name":"MILANO CENTRALE (Italy)","location":{"type":"location","longitude":9.204163,"latitude":45.486388}},"destination":{"type":"station","id":"8306421","name":"FIRENZE S.M.N. (Italy)","location":{"type":"location","longitude":11.247501,"latitude":43.776667}},"departure":"2019-06-10T11:20:00.000+02:00","arrival":"2019-06-10T12:59:00.000+02:00","operator":"interrail","mode":"train","public":true,"line":{"type":"line","id":"fr-9533","name":"FR  9533","mode":"train","public":true},"id":"8301700-2019-06-10t11-20-00-000-02-00-8306421-2019-06-10t12-59-00-000-02-00-fr-9533"}},{"to":"NICE VILLE (France)","byTrip":{"origin":{"type":"station","id":"8775605","name":"NICE VILLE (France)","location":{"type":"location","longitude":7.261945,"latitude":43.704726}},"destination":{"type":"station","id":"8301700","name":"MILANO CENTRALE (Italy)","location":{"type":"location","longitude":9.204163,"latitude":45.486388}},"departure":"2019-06-10T14:02:00.000+02:00","arrival":"2019-06-10T18:53:00.000+02:00","operator":"interrail","mode":"train","public":true,"line":{"type":"line","id":"ec-145","name":"EC   145","mode":"train","public":true},"id":"8775605-2019-06-10t14-02-00-000-02-00-8301700-2019-06-10t18-53-00-000-02-00-ec-145"}},{"to":"BARI CITY (Italy)","byTrip":{"origin":{"type":"station","id":"8301700","name":"MILANO CENTRALE (Italy)","location":{"type":"location","longitude":9.204163,"latitude":45.486388}},"destination":{"type":"station","id":"8311119","name":"BARI CENTRALE (Italy)","location":{"type":"location","longitude":16.869445,"latitude":41.117775}},"departure":"2019-06-10T15:45:00.000+02:00","arrival":"2019-06-10T22:30:00.000+02:00","operator":"interrail","mode":"train","public":true,"line":{"type":"line","id":"fr-9809","name":"FR  9809","mode":"train","public":true},"id":"8301700-2019-06-10t15-45-00-000-02-00-8311119-2019-06-10t22-30-00-000-02-00-fr-9809"}}],"WARSZAWA (Poland)":[{"to":"VIENNA (Austria)","byTrip":{"origin":{"type":"station","id":"8101003","name":"WIEN HBF (Austria)","location":{"type":"location","longitude":16.375829,"latitude":48.185004}},"destination":{"type":"station","id":"5103360","name":"WARSZAWA CENTRALNA (Poland)","location":{"type":"location","longitude":21.002775,"latitude":52.228613}},"departure":"2019-06-10T14:10:00.000+02:00","arrival":"2019-06-10T21:08:00.000+02:00","operator":"interrail","mode":"train","public":true,"line":{"type":"line","id":"ec-102","name":"EC   102","mode":"train","public":true},"id":"8101003-2019-06-10t14-10-00-000-02-00-5103360-2019-06-10t21-08-00-000-02-00-ec-102"}},{"to":"PRAGUE (Czech Republic)","byTrip":{"origin":{"type":"station","id":"5457076","name":"PRAGUE HLAVNI NADRAZI (Czech Republic)","location":{"type":"location","longitude":14.435274,"latitude":50.081386}},"destination":{"type":"station","id":"5103360","name":"WARSZAWA CENTRALNA (Poland)","location":{"type":"location","longitude":21.002775,"latitude":52.228613}},"departure":"2019-06-10T14:24:00.000+02:00","arrival":"2019-06-10T22:35:00.000+02:00","operator":"interrail","mode":"train","public":true,"line":{"type":"line","id":"ec-117","name":"EC   117","mode":"train","public":true},"id":"5457076-2019-06-10t14-24-00-000-02-00-5103360-2019-06-10t22-35-00-000-02-00-ec-117"}},{"to":"SZCZECIN (Poland)","byTrip":{"origin":{"type":"station","id":"5103360","name":"WARSZAWA CENTRALNA (Poland)","location":{"type":"location","longitude":21.002775,"latitude":52.228613}},"destination":{"type":"station","id":"5100110","name":"SZCZECIN DABIE (Poland)","location":{"type":"location","longitude":14.668058,"latitude":53.390837}},"departure":"2019-06-10T11:15:00.000+02:00","arrival":"2019-06-10T18:26:00.000+02:00","operator":"interrail","mode":"train","public":true,"line":{"type":"line","id":"tlk18106","name":"TLK18106","mode":"train","public":true},"id":"5103360-2019-06-10t11-15-00-000-02-00-5100110-2019-06-10t18-26-00-000-02-00-tlk18106"}},{"to":"LUBLIN POLNOCNY (Poland)","byTrip":{"origin":{"type":"station","id":"5103360","name":"WARSZAWA CENTRALNA (Poland)","location":{"type":"location","longitude":21.002775,"latitude":52.228613}},"destination":{"type":"station","id":"5105046","name":"LUBLIN POLNOCNY (Poland)","location":{"type":"location","longitude":22.59889,"latitude":51.241948}},"departure":"2019-06-10T11:10:00.000+02:00","arrival":"2019-06-10T14:21:00.000+02:00","operator":"interrail","mode":"train","public":true,"line":{"type":"line","id":"tlk82106","name":"TLK82106","mode":"train","public":true},"id":"5103360-2019-06-10t11-10-00-000-02-00-5105046-2019-06-10t14-21-00-000-02-00-tlk82106"}},{"to":"BYDGOSZCZ LESNA (Poland)","byTrip":{"origin":{"type":"station","id":"5103360","name":"WARSZAWA CENTRALNA (Poland)","location":{"type":"location","longitude":21.002775,"latitude":52.228613}},"destination":{"type":"station","id":"5101837","name":"BYDGOSZCZ LESNA (Poland)","location":{"type":"location","longitude":18.033611,"latitude":53.142501}},"departure":"2019-06-10T11:55:00.000+02:00","arrival":"2019-06-10T15:12:00.000+02:00","operator":"interrail","mode":"train","public":true,"line":{"type":"line","id":"tlk18108","name":"TLK18108","mode":"train","public":true},"id":"5103360-2019-06-10t11-55-00-000-02-00-5101837-2019-06-10t15-12-00-000-02-00-tlk18108"}}],"BUCHAREST (Romania)":[{"to":"VIENNA (Austria)","byTrip":{"origin":{"type":"station","id":"8101003","name":"WIEN HBF (Austria)","location":{"type":"location","longitude":16.375829,"latitude":48.185004}},"destination":{"type":"station","id":"5310017","name":"BUCURESTI NORD (Romania)","location":{"type":"location","longitude":26.074165,"latitude":44.44639}},"departure":"2019-06-10T19:42:00.000+02:00","arrival":"2019-06-11T16:06:00.000+02:00","operator":"interrail","mode":"train","public":true,"line":{"type":"line","id":"nt-347","name":"NT   347","mode":"train","public":true},"id":"8101003-2019-06-10t19-42-00-000-02-00-5310017-2019-06-11t16-06-00-000-02-00-nt-347"}},{"to":"MINSK PAS (Belarus)","byTrip":{"origin":{"type":"station","id":"2114021","name":"MINSK PAS (Belarus)","location":{"type":"location","longitude":27.582941,"latitude":53.876246}},"destination":{"type":"station","id":"5310017","name":"BUCURESTI NORD (Romania)","location":{"type":"location","longitude":26.074165,"latitude":44.44639}},"departure":"2019-06-10T17:38:00.000+02:00","arrival":"2019-06-12T01:24:00.000+02:00","operator":"interrail","mode":"train","public":true,"line":{"type":"line","id":"ir-1003","name":"IR  1003","mode":"train","public":true},"id":"2114021-2019-06-10t17-38-00-000-02-00-5310017-2019-06-12t01-24-00-000-02-00-ir-1003"}},{"to":"IASI (Romania)","byTrip":{"origin":{"type":"station","id":"5360921","name":"IASI (Romania)","location":{"type":"location","longitude":27.56944,"latitude":47.165277}},"destination":{"type":"station","id":"5310017","name":"BUCURESTI NORD (Romania)","location":{"type":"location","longitude":26.074165,"latitude":44.44639}},"departure":"2019-06-10T14:06:00.000+02:00","arrival":"2019-06-10T21:06:00.000+02:00","operator":"interrail","mode":"train","public":true,"line":{"type":"line","id":"ir-1662","name":"IR  1662","mode":"train","public":true},"id":"5360921-2019-06-10t14-06-00-000-02-00-5310017-2019-06-10t21-06-00-000-02-00-ir-1662"}},{"to":"CLUJ NAPOCA (Romania)","byTrip":{"origin":{"type":"station","id":"5332015","name":"CLUJ NAPOCA (Romania)","location":{"type":"location","longitude":23.587218,"latitude":46.784997}},"destination":{"type":"station","id":"5310017","name":"BUCURESTI NORD (Romania)","location":{"type":"location","longitude":26.074165,"latitude":44.44639}},"departure":"2019-06-10T13:40:00.000+02:00","arrival":"2019-06-10T22:53:00.000+02:00","operator":"interrail","mode":"train","public":true,"line":{"type":"line","id":"ir-1538","name":"IR  1538","mode":"train","public":true},"id":"5332015-2019-06-10t13-40-00-000-02-00-5310017-2019-06-10t22-53-00-000-02-00-ir-1538"}}],"KIEV-PASSAJIRSKII (Ukraine)":[{"to":"VIENNA (Austria)","byTrip":{"origin":{"type":"station","id":"8101003","name":"WIEN HBF (Austria)","location":{"type":"location","longitude":16.375829,"latitude":48.185004}},"destination":{"type":"station","id":"2232030","name":"KIEV-PASSAJIRSKII (Ukraine)","location":{"type":"location","longitude":30.513973,"latitude":50.434357}},"departure":"2019-06-10T16:42:00.000+02:00","arrival":"2019-06-11T17:14:00.000+02:00","operator":"interrail","mode":"train","public":true,"line":{"type":"line","id":"ft-40147","name":"FT 40147","mode":"train","public":true},"id":"8101003-2019-06-10t16-42-00-000-02-00-2232030-2019-06-11t17-14-00-000-02-00-ft-40147"}},{"to":"MINSK PAS (Belarus)","byTrip":{"origin":{"type":"station","id":"2114021","name":"MINSK PAS (Belarus)","location":{"type":"location","longitude":27.582941,"latitude":53.876246}},"destination":{"type":"station","id":"2232030","name":"KIEV-PASSAJIRSKII (Ukraine)","location":{"type":"location","longitude":30.513973,"latitude":50.434357}},"departure":"2019-06-10T14:13:00.000+02:00","arrival":"2019-06-11T01:55:00.000+02:00","operator":"interrail","mode":"train","public":true,"line":{"type":"line","id":"nt-94bj","name":"NT  94BJ","mode":"train","public":true},"id":"2114021-2019-06-10t14-13-00-000-02-00-2232030-2019-06-11t01-55-00-000-02-00-nt-94bj"}},{"to":"BUDAPEST (Hungary)","byTrip":{"origin":{"type":"station","id":"5510017","name":"BUDAPEST-KELETI (Hungary)","location":{"type":"location","longitude":19.085241,"latitude":47.500628}},"destination":{"type":"station","id":"2232030","name":"KIEV-PASSAJIRSKII (Ukraine)","location":{"type":"location","longitude":30.513973,"latitude":50.434357}},"departure":"2019-06-10T19:40:00.000+02:00","arrival":"2019-06-11T17:14:00.000+02:00","operator":"interrail","mode":"train","public":true,"line":{"type":"line","id":"ft-40147","name":"FT 40147","mode":"train","public":true},"id":"5510017-2019-06-10t19-40-00-000-02-00-2232030-2019-06-11t17-14-00-000-02-00-ft-40147"}},{"to":"MOSKVA (Russia)","byTrip":{"origin":{"type":"station","id":"2019810","name":"MOSKVA KIEVSKAIA (Russia)","location":{"type":"location","longitude":37.575647,"latitude":55.748564}},"destination":{"type":"station","id":"2232030","name":"KIEV-PASSAJIRSKII (Ukraine)","location":{"type":"location","longitude":30.513973,"latitude":50.434357}},"departure":"2019-06-10T10:44:00.000+02:00","arrival":"2019-06-10T23:21:00.000+02:00","operator":"interrail","mode":"train","public":true,"line":{"type":"line","id":"ir-341mz","name":"IR 341MZ","mode":"train","public":true},"id":"2019810-2019-06-10t10-44-00-000-02-00-2232030-2019-06-10t23-21-00-000-02-00-ir-341mz"}},{"to":"RAZDELNAIA I (Ukraine)","byTrip":{"origin":{"type":"station","id":"2232030","name":"KIEV-PASSAJIRSKII (Ukraine)","location":{"type":"location","longitude":30.513973,"latitude":50.434357}},"destination":{"type":"station","id":"2240560","name":"RAZDELNAIA I (Ukraine)","location":{"type":"location","longitude":29.215652,"latitude":47.075942}},"departure":"2019-06-11T02:20:00.000+02:00","arrival":"2019-06-11T11:10:00.000+02:00","operator":"interrail","mode":"train","public":true,"line":{"type":"line","id":"nt-94bj","name":"NT  94BJ","mode":"train","public":true},"id":"2232030-2019-06-11t02-20-00-000-02-00-2240560-2019-06-11t11-10-00-000-02-00-nt-94bj"}},{"to":"VINNICA (Ukraine)","byTrip":{"origin":{"type":"station","id":"2233580","name":"VINNICA (Ukraine)","location":{"type":"location","longitude":28.507824,"latitude":49.240329}},"destination":{"type":"station","id":"2232030","name":"KIEV-PASSAJIRSKII (Ukraine)","location":{"type":"location","longitude":30.513973,"latitude":50.434357}},"departure":"2019-06-11T04:53:00.000+02:00","arrival":"2019-06-11T08:06:00.000+02:00","operator":"interrail","mode":"train","public":true,"line":{"type":"line","id":"int-118","name":"INT  118","mode":"train","public":true},"id":"2233580-2019-06-11t04-53-00-000-02-00-2232030-2019-06-11t08-06-00-000-02-00-int-118"}}],"MINSK PAS (Belarus)":[{"to":"BUCHAREST (Romania)","byTrip":{"origin":{"type":"station","id":"2114021","name":"MINSK PAS (Belarus)","location":{"type":"location","longitude":27.582941,"latitude":53.876246}},"destination":{"type":"station","id":"5310017","name":"BUCURESTI NORD (Romania)","location":{"type":"location","longitude":26.074165,"latitude":44.44639}},"departure":"2019-06-10T17:38:00.000+02:00","arrival":"2019-06-12T01:24:00.000+02:00","operator":"interrail","mode":"train","public":true,"line":{"type":"line","id":"ir-1003","name":"IR  1003","mode":"train","public":true},"id":"2114021-2019-06-10t17-38-00-000-02-00-5310017-2019-06-12t01-24-00-000-02-00-ir-1003"}},{"to":"MOSKVA (Russia)","byTrip":{"origin":{"type":"station","id":"2114021","name":"MINSK PAS (Belarus)","location":{"type":"location","longitude":27.582941,"latitude":53.876246}},"destination":{"type":"station","id":"2019823","name":"MOSKVA BELORUSSKAIA (Russia)","location":{"type":"location","longitude":37.569463,"latitude":55.767585}},"departure":"2019-06-10T19:24:00.000+02:00","arrival":"2019-06-11T05:29:00.000+02:00","operator":"interrail","mode":"train","public":true,"line":{"type":"line","id":"n-26bj","name":"N   26BJ","mode":"train","public":true},"id":"2114021-2019-06-10t19-24-00-000-02-00-2019823-2019-06-11t05-29-00-000-02-00-n-26bj"}},{"to":"EKATERINBURG-PASSAJIRS (Russia)","byTrip":{"origin":{"type":"station","id":"2114021","name":"MINSK PAS (Belarus)","location":{"type":"location","longitude":27.582941,"latitude":53.876246}},"destination":{"type":"station","id":"2078050","name":"EKATERINBURG-PASSAJIRS (Russia)","location":{"type":"location","longitude":60.604653,"latitude":56.867011}},"departure":"2019-06-11T16:23:00.000+02:00","arrival":"2019-06-13T09:25:00.000+02:00","operator":"interrail","mode":"train","public":true,"line":{"type":"line","id":"n-104bj","name":"N  104BJ","mode":"train","public":true},"id":"2114021-2019-06-11t16-23-00-000-02-00-2078050-2019-06-13t09-25-00-000-02-00-n-104bj"}},{"to":"OMSK PASS (Russia)","byTrip":{"origin":{"type":"station","id":"2114021","name":"MINSK PAS (Belarus)","location":{"type":"location","longitude":27.582941,"latitude":53.876246}},"destination":{"type":"station","id":"2083070","name":"OMSK PASS (Russia)","location":{"type":"location","longitude":73.357767,"latitude":54.937997}},"departure":"2019-06-11T16:23:00.000+02:00","arrival":"2019-06-13T23:04:00.000+02:00","operator":"interrail","mode":"train","public":true,"line":{"type":"line","id":"n-104bj","name":"N  104BJ","mode":"train","public":true},"id":"2114021-2019-06-11t16-23-00-000-02-00-2083070-2019-06-13t23-04-00-000-02-00-n-104bj"}},{"to":"NOVOSIBIRSK GL (Russia)","byTrip":{"origin":{"type":"station","id":"2114021","name":"MINSK PAS (Belarus)","location":{"type":"location","longitude":27.582941,"latitude":53.876246}},"destination":{"type":"station","id":"2085060","name":"NOVOSIBIRSK GL (Russia)","location":{"type":"location","longitude":82.863832,"latitude":55.06124}},"departure":"2019-06-11T16:23:00.000+02:00","arrival":"2019-06-14T07:34:00.000+02:00","operator":"interrail","mode":"train","public":true,"line":{"type":"line","id":"n-104bj","name":"N  104BJ","mode":"train","public":true},"id":"2114021-2019-06-11t16-23-00-000-02-00-2085060-2019-06-14t07-34-00-000-02-00-n-104bj"}},{"to":"ODESSA-GLAVNAIA (Ukraine)","byTrip":{"origin":{"type":"station","id":"2114021","name":"MINSK PAS (Belarus)","location":{"type":"location","longitude":27.582941,"latitude":53.876246}},"destination":{"type":"station","id":"2240021","name":"ODESSA-GLAVNAIA (Ukraine)","location":{"type":"location","longitude":30.712024,"latitude":46.458823}},"departure":"2019-06-10T14:13:00.000+02:00","arrival":"2019-06-11T12:15:00.000+02:00","operator":"interrail","mode":"train","public":true,"line":{"type":"line","id":"nt-94bj","name":"NT  94BJ","mode":"train","public":true},"id":"2114021-2019-06-10t14-13-00-000-02-00-2240021-2019-06-11t12-15-00-000-02-00-nt-94bj"}},{"to":"KIEV-PASSAJIRSKII (Ukraine)","byTrip":{"origin":{"type":"station","id":"2114021","name":"MINSK PAS (Belarus)","location":{"type":"location","longitude":27.582941,"latitude":53.876246}},"destination":{"type":"station","id":"2232030","name":"KIEV-PASSAJIRSKII (Ukraine)","location":{"type":"location","longitude":30.513973,"latitude":50.434357}},"departure":"2019-06-10T14:13:00.000+02:00","arrival":"2019-06-11T01:55:00.000+02:00","operator":"interrail","mode":"train","public":true,"line":{"type":"line","id":"nt-94bj","name":"NT  94BJ","mode":"train","public":true},"id":"2114021-2019-06-10t14-13-00-000-02-00-2232030-2019-06-11t01-55-00-000-02-00-nt-94bj"}},{"to":"IVANO-FRANKOVSK (Ukraine)","byTrip":{"origin":{"type":"station","id":"2114021","name":"MINSK PAS (Belarus)","location":{"type":"location","longitude":27.582941,"latitude":53.876246}},"destination":{"type":"station","id":"2238840","name":"IVANO-FRANKOVSK (Ukraine)","location":{"type":"location","longitude":24.723527,"latitude":48.925167}},"departure":"2019-06-10T17:38:00.000+02:00","arrival":"2019-06-11T08:45:00.000+02:00","operator":"interrail","mode":"train","public":true,"line":{"type":"line","id":"ir-1003","name":"IR  1003","mode":"train","public":true},"id":"2114021-2019-06-10t17-38-00-000-02-00-2238840-2019-06-11t08-45-00-000-02-00-ir-1003"}},{"to":"RIGA-PASAZIERU (Latvia)","byTrip":{"origin":{"type":"station","id":"2114021","name":"MINSK PAS (Belarus)","location":{"type":"location","longitude":27.582941,"latitude":53.876246}},"destination":{"type":"station","id":"2509010","name":"RIGA-PASAZIERU (Latvia)","location":{"type":"location","longitude":24.120279,"latitude":56.946943}},"departure":"2019-06-10T20:38:00.000+02:00","arrival":"2019-06-11T08:28:00.000+02:00","operator":"interrail","mode":"train","public":true,"line":{"type":"line","id":"nt-87bj","name":"NT  87BJ","mode":"train","public":true},"id":"2114021-2019-06-10t20-38-00-000-02-00-2509010-2019-06-11t08-28-00-000-02-00-nt-87bj"}},{"to":"RAZDELNAIA I (Ukraine)","byTrip":{"origin":{"type":"station","id":"2114021","name":"MINSK PAS (Belarus)","location":{"type":"location","longitude":27.582941,"latitude":53.876246}},"destination":{"type":"station","id":"2240560","name":"RAZDELNAIA I (Ukraine)","location":{"type":"location","longitude":29.215652,"latitude":47.075942}},"departure":"2019-06-10T14:13:00.000+02:00","arrival":"2019-06-11T11:10:00.000+02:00","operator":"interrail","mode":"train","public":true,"line":{"type":"line","id":"nt-94bj","name":"NT  94BJ","mode":"train","public":true},"id":"2114021-2019-06-10t14-13-00-000-02-00-2240560-2019-06-11t11-10-00-000-02-00-nt-94bj"}},{"to":"GRODNO (Belarus)","byTrip":{"origin":{"type":"station","id":"2114021","name":"MINSK PAS (Belarus)","location":{"type":"location","longitude":27.582941,"latitude":53.876246}},"destination":{"type":"station","id":"2113520","name":"GRODNO (Belarus)","location":{"type":"location","longitude":23.850944,"latitude":53.686267}},"departure":"2019-06-10T17:09:00.000+02:00","arrival":"2019-06-10T22:08:00.000+02:00","operator":"interrail","mode":"train","public":true,"line":{"type":"line","id":"n-629bj","name":"N  629BJ","mode":"train","public":true},"id":"2114021-2019-06-10t17-09-00-000-02-00-2113520-2019-06-10t22-08-00-000-02-00-n-629bj"}}],"MOSKVA (Russia)":[{"to":"MINSK PAS (Belarus)","byTrip":{"origin":{"type":"station","id":"2114021","name":"MINSK PAS (Belarus)","location":{"type":"location","longitude":27.582941,"latitude":53.876246}},"destination":{"type":"station","id":"2019823","name":"MOSKVA BELORUSSKAIA (Russia)","location":{"type":"location","longitude":37.569463,"latitude":55.767585}},"departure":"2019-06-10T19:24:00.000+02:00","arrival":"2019-06-11T05:29:00.000+02:00","operator":"interrail","mode":"train","public":true,"line":{"type":"line","id":"n-26bj","name":"N   26BJ","mode":"train","public":true},"id":"2114021-2019-06-10t19-24-00-000-02-00-2019823-2019-06-11t05-29-00-000-02-00-n-26bj"}},{"to":"VOLGOGRAD 1 (Russia)","byTrip":{"origin":{"type":"station","id":"2061000","name":"VOLGOGRAD 1 (Russia)","location":{"type":"location","longitude":44.512848,"latitude":48.712428}},"destination":{"type":"station","id":"2019351","name":"MOSKVA PAVELECKAIA (Russia)","location":{"type":"location","longitude":37.636315,"latitude":55.731197}},"departure":"2019-06-10T15:30:00.000+02:00","arrival":"2019-06-11T09:30:00.000+02:00","operator":"interrail","mode":"train","public":true,"line":{"type":"line","id":"nt-1zh","name":"NT   1ZH","mode":"train","public":true},"id":"2061000-2019-06-10t15-30-00-000-02-00-2019351-2019-06-11t09-30-00-000-02-00-nt-1zh"}},{"to":"UFA (Russia)","byTrip":{"origin":{"type":"station","id":"2065450","name":"UFA (Russia)","location":{"type":"location","longitude":55.936366,"latitude":54.810683}},"destination":{"type":"station","id":"2019390","name":"MOSKVA KAZANSKAIA (Russia)","location":{"type":"location","longitude":37.657602,"latitude":55.773778}},"departure":"2019-06-10T23:47:00.000+02:00","arrival":"2019-06-12T05:12:00.000+02:00","operator":"interrail","mode":"train","public":true,"line":{"type":"line","id":"nt-115ji","name":"NT 115JI","mode":"train","public":true},"id":"2065450-2019-06-10t23-47-00-000-02-00-2019390-2019-06-12t05-12-00-000-02-00-nt-115ji"}},{"to":"SANKT-PETERBURG GLAVNY (Russia)","byTrip":{"origin":{"type":"station","id":"2003181","name":"SANKT-PETERBURG GLAVNY (Russia)","location":{"type":"location","longitude":30.362181,"latitude":59.929465}},"destination":{"type":"station","id":"2006007","name":"MOSKVA OKTIABRSKAIA (Russia)","location":{"type":"location","longitude":37.611253,"latitude":55.729246}},"departure":"2019-06-10T13:00:00.000+02:00","arrival":"2019-06-10T16:58:00.000+02:00","operator":"interrail","mode":"train","public":true,"line":{"type":"line","id":"nt-765aj","name":"NT 765AJ","mode":"train","public":true},"id":"2003181-2019-06-10t13-00-00-000-02-00-2006007-2019-06-10t16-58-00-000-02-00-nt-765aj"}},{"to":"SAMARA (Russia)","byTrip":{"origin":{"type":"station","id":"2065790","name":"SAMARA (Russia)","location":{"type":"location","longitude":50.174326,"latitude":53.12686}},"destination":{"type":"station","id":"2019390","name":"MOSKVA KAZANSKAIA (Russia)","location":{"type":"location","longitude":37.657602,"latitude":55.773778}},"departure":"2019-06-10T14:24:00.000+02:00","arrival":"2019-06-11T05:45:00.000+02:00","operator":"interrail","mode":"train","public":true,"line":{"type":"line","id":"nt-49ji","name":"NT  49JI","mode":"train","public":true},"id":"2065790-2019-06-10t14-24-00-000-02-00-2019390-2019-06-11t05-45-00-000-02-00-nt-49ji"}},{"to":"ROSTOV-IAROSLAVSKII (Russia)","byTrip":{"origin":{"type":"station","id":"2031430","name":"ROSTOV-IAROSLAVSKII (Russia)","location":{"type":"location","longitude":39.485361,"latitude":57.386938}},"destination":{"type":"station","id":"2019550","name":"MOSKVA IAROSLAVSKAIA (Russia)","location":{"type":"location","longitude":37.655948,"latitude":55.776179}},"departure":"2019-06-10T12:34:00.000+02:00","arrival":"2019-06-10T15:43:00.000+02:00","operator":"interrail","mode":"train","public":true,"line":{"type":"line","id":"nt-375ja","name":"NT 375JA","mode":"train","public":true},"id":"2031430-2019-06-10t12-34-00-000-02-00-2019550-2019-06-10t15-43-00-000-02-00-nt-375ja"}},{"to":"NIJNII NOVGOROD MOSKOV (Russia)","byTrip":{"origin":{"type":"station","id":"2026020","name":"NIJNII NOVGOROD MOSKOV (Russia)","location":{"type":"location","longitude":43.94357,"latitude":56.321689}},"destination":{"type":"station","id":"2019155","name":"MOSKVA KURSKAIA (Russia)","location":{"type":"location","longitude":37.659562,"latitude":55.758722}},"departure":"2019-06-10T10:50:00.000+02:00","arrival":"2019-06-10T14:40:00.000+02:00","operator":"interrail","mode":"train","public":true,"line":{"type":"line","id":"nt-703nj","name":"NT 703NJ","mode":"train","public":true},"id":"2026020-2019-06-10t10-50-00-000-02-00-2019155-2019-06-10t14-40-00-000-02-00-nt-703nj"}},{"to":"KAZAN (Russia)","byTrip":{"origin":{"type":"station","id":"2019390","name":"MOSKVA KAZANSKAIA (Russia)","location":{"type":"location","longitude":37.657602,"latitude":55.773778}},"destination":{"type":"station","id":"2025030","name":"KAZAN (Russia)","location":{"type":"location","longitude":49.098982,"latitude":55.78879}},"departure":"2019-06-10T13:10:00.000+02:00","arrival":"2019-06-11T02:05:00.000+02:00","operator":"interrail","mode":"train","public":true,"line":{"type":"line","id":"nt-82ij","name":"NT  82IJ","mode":"train","public":true},"id":"2019390-2019-06-10t13-10-00-000-02-00-2025030-2019-06-11t02-05-00-000-02-00-nt-82ij"}},{"to":"EKATERINBURG-PASSAJIRS (Russia)","byTrip":{"origin":{"type":"station","id":"2019390","name":"MOSKVA KAZANSKAIA (Russia)","location":{"type":"location","longitude":37.657602,"latitude":55.773778}},"destination":{"type":"station","id":"2078050","name":"EKATERINBURG-PASSAJIRS (Russia)","location":{"type":"location","longitude":60.604653,"latitude":56.867011}},"departure":"2019-06-10T13:10:00.000+02:00","arrival":"2019-06-11T15:59:00.000+02:00","operator":"interrail","mode":"train","public":true,"line":{"type":"line","id":"nt-82ij","name":"NT  82IJ","mode":"train","public":true},"id":"2019390-2019-06-10t13-10-00-000-02-00-2078050-2019-06-11t15-59-00-000-02-00-nt-82ij"}},{"to":"OMSK PASS (Russia)","byTrip":{"origin":{"type":"station","id":"2019390","name":"MOSKVA KAZANSKAIA (Russia)","location":{"type":"location","longitude":37.657602,"latitude":55.773778}},"destination":{"type":"station","id":"2083070","name":"OMSK PASS (Russia)","location":{"type":"location","longitude":73.357767,"latitude":54.937997}},"departure":"2019-06-10T13:10:00.000+02:00","arrival":"2019-06-12T05:56:00.000+02:00","operator":"interrail","mode":"train","public":true,"line":{"type":"line","id":"nt-82ij","name":"NT  82IJ","mode":"train","public":true},"id":"2019390-2019-06-10t13-10-00-000-02-00-2083070-2019-06-12t05-56-00-000-02-00-nt-82ij"}},{"to":"NOVOSIBIRSK GL (Russia)","byTrip":{"origin":{"type":"station","id":"2019390","name":"MOSKVA KAZANSKAIA (Russia)","location":{"type":"location","longitude":37.657602,"latitude":55.773778}},"destination":{"type":"station","id":"2085060","name":"NOVOSIBIRSK GL (Russia)","location":{"type":"location","longitude":82.863832,"latitude":55.06124}},"departure":"2019-06-10T13:10:00.000+02:00","arrival":"2019-06-12T14:06:00.000+02:00","operator":"interrail","mode":"train","public":true,"line":{"type":"line","id":"nt-82ij","name":"NT  82IJ","mode":"train","public":true},"id":"2019390-2019-06-10t13-10-00-000-02-00-2085060-2019-06-12t14-06-00-000-02-00-nt-82ij"}},{"to":"CHELIABINSK-GLAVNYI (Russia)","byTrip":{"origin":{"type":"station","id":"2019390","name":"MOSKVA KAZANSKAIA (Russia)","location":{"type":"location","longitude":37.657602,"latitude":55.773778}},"destination":{"type":"station","id":"2080000","name":"CHELIABINSK-GLAVNYI (Russia)","location":{"type":"location","longitude":61.415292,"latitude":55.139527}},"departure":"2019-06-10T21:22:00.000+02:00","arrival":"2019-06-12T05:05:00.000+02:00","operator":"interrail","mode":"train","public":true,"line":{"type":"line","id":"nt-14ej","name":"NT  14EJ","mode":"train","public":true},"id":"2019390-2019-06-10t21-22-00-000-02-00-2080000-2019-06-12t05-05-00-000-02-00-nt-14ej"}},{"to":"KIEV-PASSAJIRSKII (Ukraine)","byTrip":{"origin":{"type":"station","id":"2019810","name":"MOSKVA KIEVSKAIA (Russia)","location":{"type":"location","longitude":37.575647,"latitude":55.748564}},"destination":{"type":"station","id":"2232030","name":"KIEV-PASSAJIRSKII (Ukraine)","location":{"type":"location","longitude":30.513973,"latitude":50.434357}},"departure":"2019-06-10T10:44:00.000+02:00","arrival":"2019-06-10T23:21:00.000+02:00","operator":"interrail","mode":"train","public":true,"line":{"type":"line","id":"ir-341mz","name":"IR 341MZ","mode":"train","public":true},"id":"2019810-2019-06-10t10-44-00-000-02-00-2232030-2019-06-10t23-21-00-000-02-00-ir-341mz"}},{"to":"YAROSLAVL (Russia)","byTrip":{"origin":{"type":"station","id":"2031010","name":"YAROSLAVL (Russia)","location":{"type":"location","longitude":39.81184,"latitude":57.566776}},"destination":{"type":"station","id":"2019550","name":"MOSKVA IAROSLAVSKAIA (Russia)","location":{"type":"location","longitude":37.655948,"latitude":55.776179}},"departure":"2019-06-11T01:48:00.000+02:00","arrival":"2019-06-11T05:43:00.000+02:00","operator":"interrail","mode":"train","public":true,"line":{"type":"line","id":"nt-147ja","name":"NT 147JA","mode":"train","public":true},"id":"2031010-2019-06-11t01-48-00-000-02-00-2019550-2019-06-11t05-43-00-000-02-00-nt-147ja"}},{"to":"VORONEJ 1 (Russia)","byTrip":{"origin":{"type":"station","id":"2059650","name":"VORONEJ 1 (Russia)","location":{"type":"location","longitude":39.205949,"latitude":51.680055}},"destination":{"type":"station","id":"2019390","name":"MOSKVA KAZANSKAIA (Russia)","location":{"type":"location","longitude":37.657602,"latitude":55.773778}},"departure":"2019-06-10T16:26:00.000+02:00","arrival":"2019-06-10T22:46:00.000+02:00","operator":"interrail","mode":"train","public":true,"line":{"type":"line","id":"nt-739zh","name":"NT 739ZH","mode":"train","public":true},"id":"2059650-2019-06-10t16-26-00-000-02-00-2019390-2019-06-10t22-46-00-000-02-00-nt-739zh"}},{"to":"ULIANOVSK CENTR (Russia)","byTrip":{"origin":{"type":"station","id":"2064480","name":"ULIANOVSK CENTR (Russia)","location":{"type":"location","longitude":48.322449,"latitude":54.27205}},"destination":{"type":"station","id":"2019390","name":"MOSKVA KAZANSKAIA (Russia)","location":{"type":"location","longitude":37.657602,"latitude":55.773778}},"departure":"2019-06-10T13:25:00.000+02:00","arrival":"2019-06-11T05:12:00.000+02:00","operator":"interrail","mode":"train","public":true,"line":{"type":"line","id":"nt-115ji","name":"NT 115JI","mode":"train","public":true},"id":"2064480-2019-06-10t13-25-00-000-02-00-2019390-2019-06-11t05-12-00-000-02-00-nt-115ji"}},{"to":"SARATOV 1 PASS (Russia)","byTrip":{"origin":{"type":"station","id":"2062000","name":"SARATOV 1 PASS (Russia)","location":{"type":"location","longitude":46.022199,"latitude":51.537846}},"destination":{"type":"station","id":"2019390","name":"MOSKVA KAZANSKAIA (Russia)","location":{"type":"location","longitude":37.657602,"latitude":55.773778}},"departure":"2019-06-10T13:41:00.000+02:00","arrival":"2019-06-11T05:30:00.000+02:00","operator":"interrail","mode":"train","public":true,"line":{"type":"line","id":"nt-85sj","name":"NT  85SJ","mode":"train","public":true},"id":"2062000-2019-06-10t13-41-00-000-02-00-2019390-2019-06-11t05-30-00-000-02-00-nt-85sj"}},{"to":"PERM 2 (Russia)","byTrip":{"origin":{"type":"station","id":"2076110","name":"PERM 2 (Russia)","location":{"type":"location","longitude":56.181745,"latitude":58.004622}},"destination":{"type":"station","id":"2019550","name":"MOSKVA IAROSLAVSKAIA (Russia)","location":{"type":"location","longitude":37.655948,"latitude":55.776179}},"departure":"2019-06-10T12:50:00.000+02:00","arrival":"2019-06-11T10:30:00.000+02:00","operator":"interrail","mode":"train","public":true,"line":{"type":"line","id":"nt-109mj","name":"NT 109MJ","mode":"train","public":true},"id":"2076110-2019-06-10t12-50-00-000-02-00-2019550-2019-06-11t10-30-00-000-02-00-nt-109mj"}},{"to":"ASTRAHAN 1 (Russia)","byTrip":{"origin":{"type":"station","id":"2019390","name":"MOSKVA KAZANSKAIA (Russia)","location":{"type":"location","longitude":37.657602,"latitude":55.773778}},"destination":{"type":"station","id":"2061680","name":"ASTRAHAN 1 (Russia)","location":{"type":"location","longitude":48.059398,"latitude":46.360931}},"departure":"2019-06-10T21:14:00.000+02:00","arrival":"2019-06-11T23:45:00.000+02:00","operator":"interrail","mode":"train","public":true,"line":{"type":"line","id":"nt-86vj","name":"NT  86VJ","mode":"train","public":true},"id":"2019390-2019-06-10t21-14-00-000-02-00-2061680-2019-06-11t23-45-00-000-02-00-nt-86vj"}},{"to":"TIUMEN (Russia)","byTrip":{"origin":{"type":"station","id":"2019390","name":"MOSKVA KAZANSKAIA (Russia)","location":{"type":"location","longitude":37.657602,"latitude":55.773778}},"destination":{"type":"station","id":"2079000","name":"TIUMEN (Russia)","location":{"type":"location","longitude":65.522193,"latitude":57.145577}},"departure":"2019-06-10T13:10:00.000+02:00","arrival":"2019-06-11T21:54:00.000+02:00","operator":"interrail","mode":"train","public":true,"line":{"type":"line","id":"nt-82ij","name":"NT  82IJ","mode":"train","public":true},"id":"2019390-2019-06-10t13-10-00-000-02-00-2079000-2019-06-11t21-54-00-000-02-00-nt-82ij"}},{"to":"NOVOKUZNECK (Russia)","byTrip":{"origin":{"type":"station","id":"2019390","name":"MOSKVA KAZANSKAIA (Russia)","location":{"type":"location","longitude":37.657602,"latitude":55.773778}},"destination":{"type":"station","id":"2086010","name":"NOVOKUZNECK (Russia)","location":{"type":"location","longitude":87.116548,"latitude":53.746369}},"departure":"2019-06-10T19:20:00.000+02:00","arrival":"2019-06-13T03:54:00.000+02:00","operator":"interrail","mode":"train","public":true,"line":{"type":"line","id":"nt-118nj","name":"NT 118NJ","mode":"train","public":true},"id":"2019390-2019-06-10t19-20-00-000-02-00-2086010-2019-06-13t03-54-00-000-02-00-nt-118nj"}},{"to":"VLADIVOSTOK (Russia)","byTrip":{"origin":{"type":"station","id":"2019550","name":"MOSKVA IAROSLAVSKAIA (Russia)","location":{"type":"location","longitude":37.655948,"latitude":55.776179}},"destination":{"type":"station","id":"2098000","name":"VLADIVOSTOK (Russia)","location":{"type":"location","longitude":131.882208,"latitude":43.111717}},"departure":"2019-06-11T00:35:00.000+02:00","arrival":"2019-06-17T23:03:00.000+02:00","operator":"interrail","mode":"train","public":true,"line":{"type":"line","id":"nt-100ei","name":"NT 100EI","mode":"train","public":true},"id":"2019550-2019-06-11t00-35-00-000-02-00-2098000-2019-06-17t23-03-00-000-02-00-nt-100ei"}},{"to":"KUNDUR-HABAROVSKII (Russia)","byTrip":{"origin":{"type":"station","id":"2019550","name":"MOSKVA IAROSLAVSKAIA (Russia)","location":{"type":"location","longitude":37.655948,"latitude":55.776179}},"destination":{"type":"station","id":"2096110","name":"KUNDUR-HABAROVSKII (Russia)","location":{"type":"location","longitude":131.571361,"latitude":49.681348}},"departure":"2019-06-11T00:35:00.000+02:00","arrival":"2019-06-17T01:56:00.000+02:00","operator":"interrail","mode":"train","public":true,"line":{"type":"line","id":"nt-100ei","name":"NT 100EI","mode":"train","public":true},"id":"2019550-2019-06-11t00-35-00-000-02-00-2096110-2019-06-17t01-56-00-000-02-00-nt-100ei"}},{"to":"TULA 1 KURSKAIA (Russia)","byTrip":{"origin":{"type":"station","id":"2021020","name":"TULA 1 KURSKAIA (Russia)","location":{"type":"location","longitude":37.380186,"latitude":53.90111}},"destination":{"type":"station","id":"2019155","name":"MOSKVA KURSKAIA (Russia)","location":{"type":"location","longitude":37.659562,"latitude":55.758722}},"departure":"2019-06-10T12:32:00.000+02:00","arrival":"2019-06-10T14:37:00.000+02:00","operator":"interrail","mode":"train","public":true,"line":{"type":"line","id":"nt-744zh","name":"NT 744ZH","mode":"train","public":true},"id":"2021020-2019-06-10t12-32-00-000-02-00-2019155-2019-06-10t14-37-00-000-02-00-nt-744zh"}},{"to":"KIROV (Russia)","byTrip":{"origin":{"type":"station","id":"2019550","name":"MOSKVA IAROSLAVSKAIA (Russia)","location":{"type":"location","longitude":37.655948,"latitude":55.776179}},"destination":{"type":"station","id":"2027020","name":"KIROV (Russia)","location":{"type":"location","longitude":49.652916,"latitude":58.577936}},"departure":"2019-06-10T20:05:00.000+02:00","arrival":"2019-06-11T08:33:00.000+02:00","operator":"interrail","mode":"train","public":true,"line":{"type":"line","id":"nt-32gj","name":"NT  32GJ","mode":"train","public":true},"id":"2019550-2019-06-10t20-05-00-000-02-00-2027020-2019-06-11t08-33-00-000-02-00-nt-32gj"}},{"to":"TOMSK 1 (Russia)","byTrip":{"origin":{"type":"station","id":"2019550","name":"MOSKVA IAROSLAVSKAIA (Russia)","location":{"type":"location","longitude":37.655948,"latitude":55.776179}},"destination":{"type":"station","id":"2087390","name":"TOMSK 1 (Russia)","location":{"type":"location","longitude":84.998941,"latitude":56.419833}},"departure":"2019-06-10T22:50:00.000+02:00","arrival":"2019-06-13T05:03:00.000+02:00","operator":"interrail","mode":"train","public":true,"line":{"type":"line","id":"nt-38nj","name":"NT  38NJ","mode":"train","public":true},"id":"2019550-2019-06-10t22-50-00-000-02-00-2087390-2019-06-13t05-03-00-000-02-00-nt-38nj"}},{"to":"IVANOVO (Russia)","byTrip":{"origin":{"type":"station","id":"2019155","name":"MOSKVA KURSKAIA (Russia)","location":{"type":"location","longitude":37.659562,"latitude":55.758722}},"destination":{"type":"station","id":"2031850","name":"IVANOVO (Russia)","location":{"type":"location","longitude":40.685699,"latitude":56.887928}},"departure":"2019-06-10T20:07:00.000+02:00","arrival":"2019-06-10T23:48:00.000+02:00","operator":"interrail","mode":"train","public":true,"line":{"type":"line","id":"nt-738ja","name":"NT 738JA","mode":"train","public":true},"id":"2019155-2019-06-10t20-07-00-000-02-00-2031850-2019-06-10t23-48-00-000-02-00-nt-738ja"}},{"to":"CHEBOKSARY (Russia)","byTrip":{"origin":{"type":"station","id":"2019390","name":"MOSKVA KAZANSKAIA (Russia)","location":{"type":"location","longitude":37.657602,"latitude":55.773778}},"destination":{"type":"station","id":"2024850","name":"CHEBOKSARY (Russia)","location":{"type":"location","longitude":47.264482,"latitude":56.113022}},"departure":"2019-06-10T20:16:00.000+02:00","arrival":"2019-06-11T08:56:00.000+02:00","operator":"interrail","mode":"train","public":true,"line":{"type":"line","id":"nt-54gj","name":"NT  54GJ","mode":"train","public":true},"id":"2019390-2019-06-10t20-16-00-000-02-00-2024850-2019-06-11t08-56-00-000-02-00-nt-54gj"}},{"to":"BRIANSK ORLOVSKII (Russia)","byTrip":{"origin":{"type":"station","id":"2019810","name":"MOSKVA KIEVSKAIA (Russia)","location":{"type":"location","longitude":37.575647,"latitude":55.748564}},"destination":{"type":"station","id":"2020010","name":"BRIANSK ORLOVSKII (Russia)","location":{"type":"location","longitude":34.405089,"latitude":53.263181}},"departure":"2019-06-10T13:26:00.000+02:00","arrival":"2019-06-10T17:28:00.000+02:00","operator":"interrail","mode":"train","public":true,"line":{"type":"line","id":"nt-739aj","name":"NT 739AJ","mode":"train","public":true},"id":"2019810-2019-06-10t13-26-00-000-02-00-2020010-2019-06-10t17-28-00-000-02-00-nt-739aj"}},{"to":"TVER (Russia)","byTrip":{"origin":{"type":"station","id":"2006150","name":"TVER (Russia)","location":{"type":"location","longitude":34.728647,"latitude":57.484282}},"destination":{"type":"station","id":"2006007","name":"MOSKVA OKTIABRSKAIA (Russia)","location":{"type":"location","longitude":37.611253,"latitude":55.729246}},"departure":"2019-06-10T11:49:00.000+02:00","arrival":"2019-06-10T12:58:00.000+02:00","operator":"interrail","mode":"train","public":true,"line":{"type":"line","id":"nt-757aj","name":"NT 757AJ","mode":"train","public":true},"id":"2006150-2019-06-10t11-49-00-000-02-00-2006007-2019-06-10t12-58-00-000-02-00-nt-757aj"}},{"to":"ULAN-UDE (Russia)","byTrip":{"origin":{"type":"station","id":"2019390","name":"MOSKVA KAZANSKAIA (Russia)","location":{"type":"location","longitude":37.657602,"latitude":55.773778}},"destination":{"type":"station","id":"2093550","name":"ULAN-UDE (Russia)","location":{"type":"location","longitude":107.581786,"latitude":51.840539}},"departure":"2019-06-10T13:10:00.000+02:00","arrival":"2019-06-14T06:58:00.000+02:00","operator":"interrail","mode":"train","public":true,"line":{"type":"line","id":"nt-82ij","name":"NT  82IJ","mode":"train","public":true},"id":"2019390-2019-06-10t13-10-00-000-02-00-2093550-2019-06-14t06-58-00-000-02-00-nt-82ij"}},{"to":"BELGOROD (Russia)","byTrip":{"origin":{"type":"station","id":"2019155","name":"MOSKVA KURSKAIA (Russia)","location":{"type":"location","longitude":37.659562,"latitude":55.758722}},"destination":{"type":"station","id":"2043450","name":"BELGOROD (Russia)","location":{"type":"location","longitude":36.605576,"latitude":50.593538}},"departure":"2019-06-10T12:00:00.000+02:00","arrival":"2019-06-10T19:24:00.000+02:00","operator":"interrail","mode":"train","public":true,"line":{"type":"line","id":"nt-741aj","name":"NT 741AJ","mode":"train","public":true},"id":"2019155-2019-06-10t12-00-00-000-02-00-2043450-2019-06-10t19-24-00-000-02-00-nt-741aj"}},{"to":"ARHANGELSK (Russia)","byTrip":{"origin":{"type":"station","id":"2019550","name":"MOSKVA IAROSLAVSKAIA (Russia)","location":{"type":"location","longitude":37.655948,"latitude":55.776179}},"destination":{"type":"station","id":"2029050","name":"ARHANGELSK (Russia)","location":{"type":"location","longitude":40.573846,"latitude":64.551161}},"departure":"2019-06-11T10:05:00.000+02:00","arrival":"2019-06-12T06:00:00.000+02:00","operator":"interrail","mode":"train","public":true,"line":{"type":"line","id":"nt-16mj","name":"NT  16MJ","mode":"train","public":true},"id":"2019550-2019-06-11t10-05-00-000-02-00-2029050-2019-06-12t06-00-00-000-02-00-nt-16mj"}},{"to":"VINNICA (Ukraine)","byTrip":{"origin":{"type":"station","id":"2019810","name":"MOSKVA KIEVSKAIA (Russia)","location":{"type":"location","longitude":37.575647,"latitude":55.748564}},"destination":{"type":"station","id":"2233580","name":"VINNICA (Ukraine)","location":{"type":"location","longitude":28.507824,"latitude":49.240329}},"departure":"2019-06-10T10:44:00.000+02:00","arrival":"2019-06-11T02:54:00.000+02:00","operator":"interrail","mode":"train","public":true,"line":{"type":"line","id":"ir-341mz","name":"IR 341MZ","mode":"train","public":true},"id":"2019810-2019-06-10t10-44-00-000-02-00-2233580-2019-06-11t02-54-00-000-02-00-ir-341mz"}},{"to":"VLADIMIR (Russia)","byTrip":{"origin":{"type":"station","id":"2026270","name":"VLADIMIR (Russia)","location":{"type":"location","longitude":40.936786,"latitude":56.323334}},"destination":{"type":"station","id":"2019155","name":"MOSKVA KURSKAIA (Russia)","location":{"type":"location","longitude":37.659562,"latitude":55.758722}},"departure":"2019-06-10T12:01:00.000+02:00","arrival":"2019-06-10T13:45:00.000+02:00","operator":"interrail","mode":"train","public":true,"line":{"type":"line","id":"nt-729gj","name":"NT 729GJ","mode":"train","public":true},"id":"2026270-2019-06-10t12-01-00-000-02-00-2019155-2019-06-10t13-45-00-000-02-00-nt-729gj"}}],"EKATERINBURG-PASSAJIRS (Russia)":[{"to":"MINSK PAS (Belarus)","byTrip":{"origin":{"type":"station","id":"2114021","name":"MINSK PAS (Belarus)","location":{"type":"location","longitude":27.582941,"latitude":53.876246}},"destination":{"type":"station","id":"2078050","name":"EKATERINBURG-PASSAJIRS (Russia)","location":{"type":"location","longitude":60.604653,"latitude":56.867011}},"departure":"2019-06-11T16:23:00.000+02:00","arrival":"2019-06-13T09:25:00.000+02:00","operator":"interrail","mode":"train","public":true,"line":{"type":"line","id":"n-104bj","name":"N  104BJ","mode":"train","public":true},"id":"2114021-2019-06-11t16-23-00-000-02-00-2078050-2019-06-13t09-25-00-000-02-00-n-104bj"}},{"to":"VOLGOGRAD 1 (Russia)","byTrip":{"origin":{"type":"station","id":"2061000","name":"VOLGOGRAD 1 (Russia)","location":{"type":"location","longitude":44.512848,"latitude":48.712428}},"destination":{"type":"station","id":"2078050","name":"EKATERINBURG-PASSAJIRS (Russia)","location":{"type":"location","longitude":60.604653,"latitude":56.867011}},"departure":"2019-06-10T15:58:00.000+02:00","arrival":"2019-06-12T04:03:00.000+02:00","operator":"interrail","mode":"train","public":true,"line":{"type":"line","id":"nt-45sj","name":"NT  45SJ","mode":"train","public":true},"id":"2061000-2019-06-10t15-58-00-000-02-00-2078050-2019-06-12t04-03-00-000-02-00-nt-45sj"}},{"to":"UFA (Russia)","byTrip":{"origin":{"type":"station","id":"2065450","name":"UFA (Russia)","location":{"type":"location","longitude":55.936366,"latitude":54.810683}},"destination":{"type":"station","id":"2078050","name":"EKATERINBURG-PASSAJIRS (Russia)","location":{"type":"location","longitude":60.604653,"latitude":56.867011}},"departure":"2019-06-11T06:23:00.000+02:00","arrival":"2019-06-11T20:55:00.000+02:00","operator":"interrail","mode":"train","public":true,"line":{"type":"line","id":"nt-102ji","name":"NT 102JI","mode":"train","public":true},"id":"2065450-2019-06-11t06-23-00-000-02-00-2078050-2019-06-11t20-55-00-000-02-00-nt-102ji"}},{"to":"SAMARA (Russia)","byTrip":{"origin":{"type":"station","id":"2065790","name":"SAMARA (Russia)","location":{"type":"location","longitude":50.174326,"latitude":53.12686}},"destination":{"type":"station","id":"2078050","name":"EKATERINBURG-PASSAJIRS (Russia)","location":{"type":"location","longitude":60.604653,"latitude":56.867011}},"departure":"2019-06-10T21:04:00.000+02:00","arrival":"2019-06-11T20:55:00.000+02:00","operator":"interrail","mode":"train","public":true,"line":{"type":"line","id":"nt-102ji","name":"NT 102JI","mode":"train","public":true},"id":"2065790-2019-06-10t21-04-00-000-02-00-2078050-2019-06-11t20-55-00-000-02-00-nt-102ji"}},{"to":"ROSTOV-IAROSLAVSKII (Russia)","byTrip":{"origin":{"type":"station","id":"2031430","name":"ROSTOV-IAROSLAVSKII (Russia)","location":{"type":"location","longitude":39.485361,"latitude":57.386938}},"destination":{"type":"station","id":"2078050","name":"EKATERINBURG-PASSAJIRS (Russia)","location":{"type":"location","longitude":60.604653,"latitude":56.867011}},"departure":"2019-06-10T17:00:00.000+02:00","arrival":"2019-06-11T19:16:00.000+02:00","operator":"interrail","mode":"train","public":true,"line":{"type":"line","id":"nt-70ch","name":"NT  70CH","mode":"train","public":true},"id":"2031430-2019-06-10t17-00-00-000-02-00-2078050-2019-06-11t19-16-00-000-02-00-nt-70ch"}},{"to":"NIJNII NOVGOROD MOSKOV (Russia)","byTrip":{"origin":{"type":"station","id":"2026020","name":"NIJNII NOVGOROD MOSKOV (Russia)","location":{"type":"location","longitude":43.94357,"latitude":56.321689}},"destination":{"type":"station","id":"2078050","name":"EKATERINBURG-PASSAJIRS (Russia)","location":{"type":"location","longitude":60.604653,"latitude":56.867011}},"departure":"2019-06-10T23:12:00.000+02:00","arrival":"2019-06-11T19:08:00.000+02:00","operator":"interrail","mode":"train","public":true,"line":{"type":"line","id":"nt-92ij","name":"NT  92IJ","mode":"train","public":true},"id":"2026020-2019-06-10t23-12-00-000-02-00-2078050-2019-06-11t19-08-00-000-02-00-nt-92ij"}},{"to":"MOSKVA (Russia)","byTrip":{"origin":{"type":"station","id":"2019390","name":"MOSKVA KAZANSKAIA (Russia)","location":{"type":"location","longitude":37.657602,"latitude":55.773778}},"destination":{"type":"station","id":"2078050","name":"EKATERINBURG-PASSAJIRS (Russia)","location":{"type":"location","longitude":60.604653,"latitude":56.867011}},"departure":"2019-06-10T13:10:00.000+02:00","arrival":"2019-06-11T15:59:00.000+02:00","operator":"interrail","mode":"train","public":true,"line":{"type":"line","id":"nt-82ij","name":"NT  82IJ","mode":"train","public":true},"id":"2019390-2019-06-10t13-10-00-000-02-00-2078050-2019-06-11t15-59-00-000-02-00-nt-82ij"}},{"to":"KAZAN (Russia)","byTrip":{"origin":{"type":"station","id":"2025030","name":"KAZAN (Russia)","location":{"type":"location","longitude":49.098982,"latitude":55.78879}},"destination":{"type":"station","id":"2078050","name":"EKATERINBURG-PASSAJIRS (Russia)","location":{"type":"location","longitude":60.604653,"latitude":56.867011}},"departure":"2019-06-10T15:55:00.000+02:00","arrival":"2019-06-11T05:59:00.000+02:00","operator":"interrail","mode":"train","public":true,"line":{"type":"line","id":"nt-140sj","name":"NT 140SJ","mode":"train","public":true},"id":"2025030-2019-06-10t15-55-00-000-02-00-2078050-2019-06-11t05-59-00-000-02-00-nt-140sj"}},{"to":"OMSK PASS (Russia)","byTrip":{"origin":{"type":"station","id":"2078050","name":"EKATERINBURG-PASSAJIRS (Russia)","location":{"type":"location","longitude":60.604653,"latitude":56.867011}},"destination":{"type":"station","id":"2083070","name":"OMSK PASS (Russia)","location":{"type":"location","longitude":73.357767,"latitude":54.937997}},"departure":"2019-06-10T16:42:00.000+02:00","arrival":"2019-06-11T05:56:00.000+02:00","operator":"interrail","mode":"train","public":true,"line":{"type":"line","id":"nt-76ei","name":"NT  76EI","mode":"train","public":true},"id":"2078050-2019-06-10t16-42-00-000-02-00-2083070-2019-06-11t05-56-00-000-02-00-nt-76ei"}},{"to":"NOVOSIBIRSK GL (Russia)","byTrip":{"origin":{"type":"station","id":"2078050","name":"EKATERINBURG-PASSAJIRS (Russia)","location":{"type":"location","longitude":60.604653,"latitude":56.867011}},"destination":{"type":"station","id":"2085060","name":"NOVOSIBIRSK GL (Russia)","location":{"type":"location","longitude":82.863832,"latitude":55.06124}},"departure":"2019-06-10T16:42:00.000+02:00","arrival":"2019-06-11T14:06:00.000+02:00","operator":"interrail","mode":"train","public":true,"line":{"type":"line","id":"nt-76ei","name":"NT  76EI","mode":"train","public":true},"id":"2078050-2019-06-10t16-42-00-000-02-00-2085060-2019-06-11t14-06-00-000-02-00-nt-76ei"}},{"to":"CHELIABINSK-GLAVNYI (Russia)","byTrip":{"origin":{"type":"station","id":"2078050","name":"EKATERINBURG-PASSAJIRS (Russia)","location":{"type":"location","longitude":60.604653,"latitude":56.867011}},"destination":{"type":"station","id":"2080000","name":"CHELIABINSK-GLAVNYI (Russia)","location":{"type":"location","longitude":61.415292,"latitude":55.139527}},"departure":"2019-06-10T11:03:00.000+02:00","arrival":"2019-06-10T16:02:00.000+02:00","operator":"interrail","mode":"train","public":true,"line":{"type":"line","id":"nt-101ji","name":"NT 101JI","mode":"train","public":true},"id":"2078050-2019-06-10t11-03-00-000-02-00-2080000-2019-06-10t16-02-00-000-02-00-nt-101ji"}},{"to":"YAROSLAVL (Russia)","byTrip":{"origin":{"type":"station","id":"2031010","name":"YAROSLAVL (Russia)","location":{"type":"location","longitude":39.81184,"latitude":57.566776}},"destination":{"type":"station","id":"2078050","name":"EKATERINBURG-PASSAJIRS (Russia)","location":{"type":"location","longitude":60.604653,"latitude":56.867011}},"departure":"2019-06-11T04:48:00.000+02:00","arrival":"2019-06-12T09:16:00.000+02:00","operator":"interrail","mode":"train","public":true,"line":{"type":"line","id":"nt-100ei","name":"NT 100EI","mode":"train","public":true},"id":"2031010-2019-06-11t04-48-00-000-02-00-2078050-2019-06-12t09-16-00-000-02-00-nt-100ei"}},{"to":"ULIANOVSK CENTR (Russia)","byTrip":{"origin":{"type":"station","id":"2064480","name":"ULIANOVSK CENTR (Russia)","location":{"type":"location","longitude":48.322449,"latitude":54.27205}},"destination":{"type":"station","id":"2078050","name":"EKATERINBURG-PASSAJIRS (Russia)","location":{"type":"location","longitude":60.604653,"latitude":56.867011}},"departure":"2019-06-10T17:10:00.000+02:00","arrival":"2019-06-11T14:21:00.000+02:00","operator":"interrail","mode":"train","public":true,"line":{"type":"line","id":"nt-105zh","name":"NT 105ZH","mode":"train","public":true},"id":"2064480-2019-06-10t17-10-00-000-02-00-2078050-2019-06-11t14-21-00-000-02-00-nt-105zh"}},{"to":"SARATOV 1 PASS (Russia)","byTrip":{"origin":{"type":"station","id":"2062000","name":"SARATOV 1 PASS (Russia)","location":{"type":"location","longitude":46.022199,"latitude":51.537846}},"destination":{"type":"station","id":"2078050","name":"EKATERINBURG-PASSAJIRS (Russia)","location":{"type":"location","longitude":60.604653,"latitude":56.867011}},"departure":"2019-06-10T15:57:00.000+02:00","arrival":"2019-06-12T03:18:00.000+02:00","operator":"interrail","mode":"train","public":true,"line":{"type":"line","id":"nt-373sj","name":"NT 373SJ","mode":"train","public":true},"id":"2062000-2019-06-10t15-57-00-000-02-00-2078050-2019-06-12t03-18-00-000-02-00-nt-373sj"}},{"to":"PERM 2 (Russia)","byTrip":{"origin":{"type":"station","id":"2076110","name":"PERM 2 (Russia)","location":{"type":"location","longitude":56.181745,"latitude":58.004622}},"destination":{"type":"station","id":"2078050","name":"EKATERINBURG-PASSAJIRS (Russia)","location":{"type":"location","longitude":60.604653,"latitude":56.867011}},"departure":"2019-06-10T13:48:00.000+02:00","arrival":"2019-06-10T19:08:00.000+02:00","operator":"interrail","mode":"train","public":true,"line":{"type":"line","id":"nt-56yj","name":"NT  56YJ","mode":"train","public":true},"id":"2076110-2019-06-10t13-48-00-000-02-00-2078050-2019-06-10t19-08-00-000-02-00-nt-56yj"}},{"to":"ORENBURG (Russia)","byTrip":{"origin":{"type":"station","id":"2081190","name":"ORENBURG (Russia)","location":{"type":"location","longitude":54.907857,"latitude":52.222815}},"destination":{"type":"station","id":"2078050","name":"EKATERINBURG-PASSAJIRS (Russia)","location":{"type":"location","longitude":60.604653,"latitude":56.867011}},"departure":"2019-06-10T15:05:00.000+02:00","arrival":"2019-06-11T11:52:00.000+02:00","operator":"interrail","mode":"train","public":true,"line":{"type":"line","id":"nt-122uj","name":"NT 122UJ","mode":"train","public":true},"id":"2081190-2019-06-10t15-05-00-000-02-00-2078050-2019-06-11t11-52-00-000-02-00-nt-122uj"}},{"to":"PUGACHEVSK (Russia)","byTrip":{"origin":{"type":"station","id":"2062770","name":"PUGACHEVSK (Russia)","location":{"type":"location","longitude":48.092649,"latitude":51.971782}},"destination":{"type":"station","id":"2078050","name":"EKATERINBURG-PASSAJIRS (Russia)","location":{"type":"location","longitude":60.604653,"latitude":56.867011}},"departure":"2019-06-10T23:35:00.000+02:00","arrival":"2019-06-12T09:52:00.000+02:00","operator":"interrail","mode":"train","public":true,"line":{"type":"line","id":"nt-346sj","name":"NT 346SJ","mode":"train","public":true},"id":"2062770-2019-06-10t23-35-00-000-02-00-2078050-2019-06-12t09-52-00-000-02-00-nt-346sj"}},{"to":"ASTRAHAN 1 (Russia)","byTrip":{"origin":{"type":"station","id":"2061680","name":"ASTRAHAN 1 (Russia)","location":{"type":"location","longitude":48.059398,"latitude":46.360931}},"destination":{"type":"station","id":"2078050","name":"EKATERINBURG-PASSAJIRS (Russia)","location":{"type":"location","longitude":60.604653,"latitude":56.867011}},