{"PARIS NORD (France)":[{"to":"LONDON ST. PANCRAS (United Kingdom)","byTrip":{"origin":{"type":"station","id":"8727100","name":"PARIS NORD (France)","location":{"type":"location","longitude":2.354724,"latitude":48.881389}},"destination":{"type":"station","id":"7015550","name":"LONDON ST. PANCRAS (United Kingdom)","location":{"type":"location","longitude":-0.124167,"latitude":51.530277}},"departure":"2019-06-10T12:13:00.000+02:00","arrival":"2019-06-10T13:30:00.000+02:00","operator":"interrail","mode":"train","public":true,"line":{"type":"line","id":"es-9027","name":"ES  9027","mode":"train","public":true},"id":"8727100-2019-06-10t12-13-00-000-02-00-7015550-2019-06-10t13-30-00-000-02-00-es-9027"}},{"to":"ESSEN HBF (Germany)","byTrip":{"origin":{"type":"station","id":"8010184","name":"ESSEN HBF (Germany)","location":{"type":"location","longitude":7.014723,"latitude":51.451387}},"destination":{"type":"station","id":"8727100","name":"PARIS NORD (France)","location":{"type":"location","longitude":2.354724,"latitude":48.881389}},"departure":"2019-06-10T11:24:00.000+02:00","arrival":"2019-06-10T16:05:00.000+02:00","operator":"interrail","mode":"train","public":true,"line":{"type":"line","id":"tha-9448","name":"THA 9448","mode":"train","public":true},"id":"8010184-2019-06-10t11-24-00-000-02-00-8727100-2019-06-10t16-05-00-000-02-00-tha-9448"}},{"to":"DUESSELDORF HBF (Germany)","byTrip":{"origin":{"type":"station","id":"8008094","name":"DUESSELDORF HBF (Germany)","location":{"type":"location","longitude":6.794443,"latitude":51.219996}},"destination":{"type":"station","id":"8727100","name":"PARIS NORD (France)","location":{"type":"location","longitude":2.354724,"latitude":48.881389}},"departure":"2019-06-10T11:53:00.000+02:00","arrival":"2019-06-10T16:05:00.000+02:00","operator":"interrail","mode":"train","public":true,"line":{"type":"line","id":"tha-9448","name":"THA 9448","mode":"train","public":true},"id":"8008094-2019-06-10t11-53-00-000-02-00-8727100-2019-06-10t16-05-00-000-02-00-tha-9448"}}],"LONDON ST. PANCRAS (United Kingdom)":[{"to":"PARIS NORD (France)","byTrip":{"origin":{"type":"station","id":"8727100","name":"PARIS NORD (France)","location":{"type":"location","longitude":2.354724,"latitude":48.881389}},"destination":{"type":"station","id":"7015550","name":"LONDON ST. PANCRAS (United Kingdom)","location":{"type":"location","longitude":-0.124167,"latitude":51.530277}},"departure":"2019-06-10T12:13:00.000+02:00","arrival":"2019-06-10T13:30:00.000+02:00","operator":"interrail","mode":"train","public":true,"line":{"type":"line","id":"es-9027","name":"ES  9027","mode":"train","public":true},"id":"8727100-2019-06-10t12-13-00-000-02-00-7015550-2019-06-10t13-30-00-000-02-00-es-9027"}},{"to":"LEICESTER (United Kingdom)","byTrip":{"origin":{"type":"station","id":"7015550","name":"LONDON ST. PANCRAS (United Kingdom)","location":{"type":"location","longitude":-0.124167,"latitude":51.530277}},"destination":{"type":"station","id":"7019470","name":"LEICESTER (United Kingdom)","location":{"type":"location","longitude":-1.123884,"latitude":52.628615}},"departure":"2019-06-10T10:31:00.000+02:00","arrival":"2019-06-10T11:34:00.000+02:00","operator":"interrail","mode":"train","public":true,"line":{"type":"line","id":"exp","name":"EXP     ","mode":"train","public":true},"id":"7015550-2019-06-10t10-31-00-000-02-00-7019470-2019-06-10t11-34-00-000-02-00-exp"}},{"to":"ROTTERDAM CENTRAAL (Netherlands)","byTrip":{"origin":{"type":"station","id":"7015550","name":"LONDON ST. PANCRAS (United Kingdom)","location":{"type":"location","longitude":-0.124167,"latitude":51.530277}},"destination":{"type":"station","id":"8400530","name":"ROTTERDAM CENTRAAL (Netherlands)","location":{"type":"location","longitude":4.469724,"latitude":51.925002}},"departure":"2019-06-10T17:16:00.000+02:00","arrival":"2019-06-10T21:42:00.000+02:00","operator":"interrail","mode":"train","public":true,"line":{"type":"line","id":"es-9150","name":"ES  9150","mode":"train","public":true},"id":"7015550-2019-06-10t17-16-00-000-02-00-8400530-2019-06-10t21-42-00-000-02-00-es-9150"}}],"SANKT-PETERBURG GLAVNY (Russia)":[{"to":"MOSKVA OKTIABRSKAIA (Russia)","byTrip":{"origin":{"type":"station","id":"2003181","name":"SANKT-PETERBURG GLAVNY (Russia)","location":{"type":"location","longitude":30.362181,"latitude":59.929465}},"destination":{"type":"station","id":"2006007","name":"MOSKVA OKTIABRSKAIA (Russia)","location":{"type":"location","longitude":37.611253,"latitude":55.729246}},"departure":"2019-06-10T13:00:00.000+02:00","arrival":"2019-06-10T16:58:00.000+02:00","operator":"interrail","mode":"train","public":true,"line":{"type":"line","id":"nt-765aj","name":"NT 765AJ","mode":"train","public":true},"id":"2003181-2019-06-10t13-00-00-000-02-00-2006007-2019-06-10t16-58-00-000-02-00-nt-765aj"}},{"to":"KRASNODAR 1 (Russia)","byTrip":{"origin":{"type":"station","id":"2003181","name":"SANKT-PETERBURG GLAVNY (Russia)","location":{"type":"location","longitude":30.362181,"latitude":59.929465}},"destination":{"type":"station","id":"2052440","name":"KRASNODAR 1 (Russia)","location":{"type":"location","longitude":39.156041,"latitude":45.517131}},"departure":"2019-06-10T20:13:00.000+02:00","arrival":"2019-06-12T03:02:00.000+02:00","operator":"interrail","mode":"train","public":true,"line":{"type":"line","id":"nt-35aj","name":"NT  35AJ","mode":"train","public":true},"id":"2003181-2019-06-10t20-13-00-000-02-00-2052440-2019-06-12t03-02-00-000-02-00-nt-35aj"}}],"MOSKVA OKTIABRSKAIA (Russia)":[{"to":"SANKT-PETERBURG GLAVNY (Russia)","byTrip":{"origin":{"type":"station","id":"2003181","name":"SANKT-PETERBURG GLAVNY (Russia)","location":{"type":"location","longitude":30.362181,"latitude":59.929465}},"destination":{"type":"station","id":"2006007","name":"MOSKVA OKTIABRSKAIA (Russia)","location":{"type":"location","longitude":37.611253,"latitude":55.729246}},"departure":"2019-06-10T13:00:00.000+02:00","arrival":"2019-06-10T16:58:00.000+02:00","operator":"interrail","mode":"train","public":true,"line":{"type":"line","id":"nt-765aj","name":"NT 765AJ","mode":"train","public":true},"id":"2003181-2019-06-10t13-00-00-000-02-00-2006007-2019-06-10t16-58-00-000-02-00-nt-765aj"}}],"MOSKVA KIEVSKAIA (Russia)":[{"to":"KIEV-PASSAJIRSKII (Ukraine)","byTrip":{"origin":{"type":"station","id":"2019810","name":"MOSKVA KIEVSKAIA (Russia)","location":{"type":"location","longitude":37.575647,"latitude":55.748564}},"destination":{"type":"station","id":"2232030","name":"KIEV-PASSAJIRSKII (Ukraine)","location":{"type":"location","longitude":30.513973,"latitude":50.434357}},"departure":"2019-06-10T10:44:00.000+02:00","arrival":"2019-06-10T23:21:00.000+02:00","operator":"interrail","mode":"train","public":true,"line":{"type":"line","id":"ir-341mz","name":"IR 341MZ","mode":"train","public":true},"id":"2019810-2019-06-10t10-44-00-000-02-00-2232030-2019-06-10t23-21-00-000-02-00-ir-341mz"}}],"KIEV-PASSAJIRSKII (Ukraine)":[{"to":"MOSKVA KIEVSKAIA (Russia)","byTrip":{"origin":{"type":"station","id":"2019810","name":"MOSKVA KIEVSKAIA (Russia)","location":{"type":"location","longitude":37.575647,"latitude":55.748564}},"destination":{"type":"station","id":"2232030","name":"KIEV-PASSAJIRSKII (Ukraine)","location":{"type":"location","longitude":30.513973,"latitude":50.434357}},"departure":"2019-06-10T10:44:00.000+02:00","arrival":"2019-06-10T23:21:00.000+02:00","operator":"interrail","mode":"train","public":true,"line":{"type":"line","id":"ir-341mz","name":"IR 341MZ","mode":"train","public":true},"id":"2019810-2019-06-10t10-44-00-000-02-00-2232030-2019-06-10t23-21-00-000-02-00-ir-341mz"}},{"to":"WIEN HBF (Austria)","byTrip":{"origin":{"type":"station","id":"8101003","name":"WIEN HBF (Austria)","location":{"type":"location","longitude":16.375829,"latitude":48.185004}},"destination":{"type":"station","id":"2232030","name":"KIEV-PASSAJIRSKII (Ukraine)","location":{"type":"location","longitude":30.513973,"latitude":50.434357}},"departure":"2019-06-10T16:42:00.000+02:00","arrival":"2019-06-11T17:14:00.000+02:00","operator":"interrail","mode":"train","public":true,"line":{"type":"line","id":"ft-40147","name":"FT 40147","mode":"train","public":true},"id":"8101003-2019-06-10t16-42-00-000-02-00-2232030-2019-06-11t17-14-00-000-02-00-ft-40147"}},{"to":"BUDAPEST-KELETI (Hungary)","byTrip":{"origin":{"type":"station","id":"5510017","name":"BUDAPEST-KELETI (Hungary)","location":{"type":"location","longitude":19.085241,"latitude":47.500628}},"destination":{"type":"station","id":"2232030","name":"KIEV-PASSAJIRSKII (Ukraine)","location":{"type":"location","longitude":30.513973,"latitude":50.434357}},"departure":"2019-06-10T19:40:00.000+02:00","arrival":"2019-06-11T17:14:00.000+02:00","operator":"interrail","mode":"train","public":true,"line":{"type":"line","id":"ft-40147","name":"FT 40147","mode":"train","public":true},"id":"5510017-2019-06-10t19-40-00-000-02-00-2232030-2019-06-11t17-14-00-000-02-00-ft-40147"}}],"WIEN MEIDLING (Austria)":[{"to":"MUENCHEN HBF (Germany)","byTrip":{"origin":{"type":"station","id":"8103107","name":"WIEN MEIDLING (Austria)","location":{"type":"location","longitude":16.333058,"latitude":48.174442}},"destination":{"type":"station","id":"8020347","name":"MUENCHEN HBF (Germany)","location":{"type":"location","longitude":11.55833,"latitude":48.140274}},"departure":"2019-06-10T10:37:00.000+02:00","arrival":"2019-06-10T14:57:00.000+02:00","operator":"interrail","mode":"train","public":true,"line":{"type":"line","id":"ec-60","name":"EC    60","mode":"train","public":true},"id":"8103107-2019-06-10t10-37-00-000-02-00-8020347-2019-06-10t14-57-00-000-02-00-ec-60"}},{"to":"HAMBURG HBF (Germany)","byTrip":{"origin":{"type":"station","id":"8103107","name":"WIEN MEIDLING (Austria)","location":{"type":"location","longitude":16.333058,"latitude":48.174442}},"destination":{"type":"station","id":"8001071","name":"HAMBURG HBF (Germany)","location":{"type":"location","longitude":10.006945,"latitude":53.552778}},"departure":"2019-06-10T13:22:00.000+02:00","arrival":"2019-06-10T21:53:00.000+02:00","operator":"interrail","mode":"train","public":true,"line":{"type":"line","id":"ice-90","name":"ICE   90","mode":"train","public":true},"id":"8103107-2019-06-10t13-22-00-000-02-00-8001071-2019-06-10t21-53-00-000-02-00-ice-90"}},{"to":"ROMA TERMINI (Italy)","byTrip":{"origin":{"type":"station","id":"8103107","name":"WIEN MEIDLING (Austria)","location":{"type":"location","longitude":16.333058,"latitude":48.174442}},"destination":{"type":"station","id":"8308409","name":"ROMA TERMINI (Italy)","location":{"type":"location","longitude":12.501667,"latitude":41.900555}},"departure":"2019-06-10T19:31:00.000+02:00","arrival":"2019-06-11T09:22:00.000+02:00","operator":"interrail","mode":"train","public":true,"line":{"type":"line","id":"nj-40233","name":"NJ 40233","mode":"train","public":true},"id":"8103107-2019-06-10t19-31-00-000-02-00-8308409-2019-06-11t09-22-00-000-02-00-nj-40233"}},{"to":"MILANO LAMBRATE (Italy)","byTrip":{"origin":{"type":"station","id":"8103107","name":"WIEN MEIDLING (Austria)","location":{"type":"location","longitude":16.333058,"latitude":48.174442}},"destination":{"type":"station","id":"8301701","name":"MILANO LAMBRATE (Italy)","location":{"type":"location","longitude":9.236947,"latitude":45.484725}},"departure":"2019-06-10T19:31:00.000+02:00","arrival":"2019-06-11T08:59:00.000+02:00","operator":"interrail","mode":"train","public":true,"line":{"type":"line","id":"nj-233","name":"NJ   233","mode":"train","public":true},"id":"8103107-2019-06-10t19-31-00-000-02-00-8301701-2019-06-11t08-59-00-000-02-00-nj-233"}},{"to":"ZAGREB GLAVNI KOL. (Croatia)","byTrip":{"origin":{"type":"station","id":"8103107","name":"WIEN MEIDLING (Austria)","location":{"type":"location","longitude":16.333058,"latitude":48.174442}},"destination":{"type":"station","id":"7872480","name":"ZAGREB GLAVNI KOL. (Croatia)","location":{"type":"location","longitude":15.978892,"latitude":45.804445}},"departure":"2019-06-10T16:05:00.000+02:00","arrival":"2019-06-10T22:41:00.000+02:00","operator":"interrail","mode":"train","public":true,"line":{"type":"line","id":"ec-1259","name":"EC  1259","mode":"train","public":true},"id":"8103107-2019-06-10t16-05-00-000-02-00-7872480-2019-06-10t22-41-00-000-02-00-ec-1259"}},{"to":"DORTMUND HBF (Germany)","byTrip":{"origin":{"type":"station","id":"8103107","name":"WIEN MEIDLING (Austria)","location":{"type":"location","longitude":16.333058,"latitude":48.174442}},"destination":{"type":"station","id":"8010053","name":"DORTMUND HBF (Germany)","location":{"type":"location","longitude":7.459168,"latitude":51.517782}},"departure":"2019-06-10T11:22:00.000+02:00","arrival":"2019-06-10T21:20:00.000+02:00","operator":"interrail","mode":"train","public":true,"line":{"type":"line","id":"ice-26","name":"ICE   26","mode":"train","public":true},"id":"8103107-2019-06-10t11-22-00-000-02-00-8010053-2019-06-10t21-20-00-000-02-00-ice-26"}}],"MUENCHEN HBF (Germany)":[{"to":"WIEN MEIDLING (Austria)","byTrip":{"origin":{"type":"station","id":"8103107","name":"WIEN MEIDLING (Austria)","location":{"type":"location","longitude":16.333058,"latitude":48.174442}},"destination":{"type":"station","id":"8020347","name":"MUENCHEN HBF (Germany)","location":{"type":"location","longitude":11.55833,"latitude":48.140274}},"departure":"2019-06-10T10:37:00.000+02:00","arrival":"2019-06-10T14:57:00.000+02:00","operator":"interrail","mode":"train","public":true,"line":{"type":"line","id":"ec-60","name":"EC    60","mode":"train","public":true},"id":"8103107-2019-06-10t10-37-00-000-02-00-8020347-2019-06-10t14-57-00-000-02-00-ec-60"}},{"to":"BERLIN SUEDKREUZ (Germany)","byTrip":{"origin":{"type":"station","id":"8020347","name":"MUENCHEN HBF (Germany)","location":{"type":"location","longitude":11.55833,"latitude":48.140274}},"destination":{"type":"station","id":"8065971","name":"BERLIN SUEDKREUZ (Germany)","location":{"type":"location","longitude":13.365279,"latitude":52.474998}},"departure":"2019-06-10T10:43:00.000+02:00","arrival":"2019-06-10T15:22:00.000+02:00","operator":"interrail","mode":"train","public":true,"line":{"type":"line","id":"ice-508","name":"ICE  508","mode":"train","public":true},"id":"8020347-2019-06-10t10-43-00-000-02-00-8065971-2019-06-10t15-22-00-000-02-00-ice-508"}},{"to":"BUDAPEST-KELENFOELD (Hungary)","byTrip":{"origin":{"type":"station","id":"8020347","name":"MUENCHEN HBF (Germany)","location":{"type":"location","longitude":11.55833,"latitude":48.140274}},"destination":{"type":"station","id":"5501024","name":"BUDAPEST-KELENFOELD (Hungary)","location":{"type":"location","longitude":19.019997,"latitude":47.464447}},"departure":"2019-06-10T13:01:00.000+02:00","arrival":"2019-06-10T20:02:00.000+02:00","operator":"interrail","mode":"train","public":true,"line":{"type":"line","id":"ec-67","name":"EC    67","mode":"train","public":true},"id":"8020347-2019-06-10t13-01-00-000-02-00-5501024-2019-06-10t20-02-00-000-02-00-ec-67"}},{"to":"STUTTGART HBF (Germany)","byTrip":{"origin":{"type":"station","id":"8029034","name":"STUTTGART HBF (Germany)","location":{"type":"location","longitude":9.181663,"latitude":48.784171}},"destination":{"type":"station","id":"8020347","name":"MUENCHEN HBF (Germany)","location":{"type":"location","longitude":11.55833,"latitude":48.140274}},"departure":"2019-06-10T11:14:00.000+02:00","arrival":"2019-06-10T13:27:00.000+02:00","operator":"interrail","mode":"train","public":true,"line":{"type":"line","id":"ice-2533","name":"ICE 2533","mode":"train","public":true},"id":"8029034-2019-06-10t11-14-00-000-02-00-8020347-2019-06-10t13-27-00-000-02-00-ice-2533"}}],"HAMBURG HBF (Germany)":[{"to":"WIEN MEIDLING (Austria)","byTrip":{"origin":{"type":"station","id":"8103107","name":"WIEN MEIDLING (Austria)","location":{"type":"location","longitude":16.333058,"latitude":48.174442}},"destination":{"type":"station","id":"8001071","name":"HAMBURG HBF (Germany)","location":{"type":"location","longitude":10.006945,"latitude":53.552778}},"departure":"2019-06-10T13:22:00.000+02:00","arrival":"2019-06-10T21:53:00.000+02:00","operator":"interrail","mode":"train","public":true,"line":{"type":"line","id":"ice-90","name":"ICE   90","mode":"train","public":true},"id":"8103107-2019-06-10t13-22-00-000-02-00-8001071-2019-06-10t21-53-00-000-02-00-ice-90"}},{"to":"BERLIN HBF (TIEF) (Germany)","byTrip":{"origin":{"type":"station","id":"8001071","name":"HAMBURG HBF (Germany)","location":{"type":"location","longitude":10.006945,"latitude":53.552778}},"destination":{"type":"station","id":"8031922","name":"BERLIN HBF (TIEF) (Germany)","location":{"type":"location","longitude":13.369441,"latitude":52.525553}},"departure":"2019-06-10T10:35:00.000+02:00","arrival":"2019-06-10T12:20:00.000+02:00","operator":"interrail","mode":"train","public":true,"line":{"type":"line","id":"ice-705","name":"ICE  705","mode":"train","public":true},"id":"8001071-2019-06-10t10-35-00-000-02-00-8031922-2019-06-10t12-20-00-000-02-00-ice-705"}},{"to":"Koebenhavn H (Denmark)","byTrip":{"origin":{"type":"station","id":"8001071","name":"HAMBURG HBF (Germany)","location":{"type":"location","longitude":10.006945,"latitude":53.552778}},"destination":{"type":"station","id":"8600626","name":"Koebenhavn H (Denmark)","location":{"type":"location","longitude":12.565553,"latitude":55.673054}},"departure":"2019-06-10T23:42:00.000+02:00","arrival":"2019-06-11T06:53:00.000+02:00","operator":"interrail","mode":"train","public":true,"line":{"type":"line","id":"ic-431","name":"IC   431","mode":"train","public":true},"id":"8001071-2019-06-10t23-42-00-000-02-00-8600626-2019-06-11t06-53-00-000-02-00-ic-431"}},{"to":"BRNO DOLNI NADRAZI (Czech Republic)","byTrip":{"origin":{"type":"station","id":"5438015","name":"BRNO DOLNI NADRAZI (Czech Republic)","location":{"type":"location","longitude":16.616111,"latitude":49.18278}},"destination":{"type":"station","id":"8001071","name":"HAMBURG HBF (Germany)","location":{"type":"location","longitude":10.006945,"latitude":53.552778}},"departure":"2019-06-10T11:37:00.000+02:00","arrival":"2019-06-10T21:15:00.000+02:00","operator":"interrail","mode":"train","public":true,"line":{"type":"line","id":"ec-172","name":"EC   172","mode":"train","public":true},"id":"5438015-2019-06-10t11-37-00-000-02-00-8001071-2019-06-10t21-15-00-000-02-00-ec-172"}},{"to":"MANNHEIM HBF (Germany)","byTrip":{"origin":{"type":"station","id":"8014008","name":"MANNHEIM HBF (Germany)","location":{"type":"location","longitude":8.46889,"latitude":49.479442}},"destination":{"type":"station","id":"8001071","name":"HAMBURG HBF (Germany)","location":{"type":"location","longitude":10.006945,"latitude":53.552778}},"departure":"2019-06-10T11:16:00.000+02:00","arrival":"2019-06-10T16:07:00.000+02:00","operator":"interrail","mode":"train","public":true,"line":{"type":"line","id":"ice-76","name":"ICE   76","mode":"train","public":true},"id":"8014008-2019-06-10t11-16-00-000-02-00-8001071-2019-06-10t16-07-00-000-02-00-ice-76"}},{"to":"HANNOVER HBF (Germany)","byTrip":{"origin":{"type":"station","id":"8013552","name":"HANNOVER HBF (Germany)","location":{"type":"location","longitude":9.741107,"latitude":52.376665}},"destination":{"type":"station","id":"8001071","name":"HAMBURG HBF (Germany)","location":{"type":"location","longitude":10.006945,"latitude":53.552778}},"departure":"2019-06-10T10:36:00.000+02:00","arrival":"2019-06-10T11:56:00.000+02:00","operator":"interrail","mode":"train","public":true,"line":{"type":"line","id":"ice-886","name":"ICE  886","mode":"train","public":true},"id":"8013552-2019-06-10t10-36-00-000-02-00-8001071-2019-06-10t11-56-00-000-02-00-ice-886"}}],"WIEN HBF (Austria)":[{"to":"BUDAPEST-KELENFOELD (Hungary)","byTrip":{"origin":{"type":"station","id":"8101003","name":"WIEN HBF (Austria)","location":{"type":"location","longitude":16.375829,"latitude":48.185004}},"destination":{"type":"station","id":"5501024","name":"BUDAPEST-KELENFOELD (Hungary)","location":{"type":"location","longitude":19.019997,"latitude":47.464447}},"departure":"2019-06-10T11:40:00.000+02:00","arrival":"2019-06-10T14:02:00.000+02:00","operator":"interrail","mode":"train","public":true,"line":{"type":"line","id":"ec-61","name":"EC    61","mode":"train","public":true},"id":"8101003-2019-06-10t11-40-00-000-02-00-5501024-2019-06-10t14-02-00-000-02-00-ec-61"}},{"to":"WARSZAWA CENTRALNA (Poland)","byTrip":{"origin":{"type":"station","id":"8101003","name":"WIEN HBF (Austria)","location":{"type":"location","longitude":16.375829,"latitude":48.185004}},"destination":{"type":"station","id":"5103360","name":"WARSZAWA CENTRALNA (Poland)","location":{"type":"location","longitude":21.002775,"latitude":52.228613}},"departure":"2019-06-10T14:10:00.000+02:00","arrival":"2019-06-10T21:08:00.000+02:00","operator":"interrail","mode":"train","public":true,"line":{"type":"line","id":"ec-102","name":"EC   102","mode":"train","public":true},"id":"8101003-2019-06-10t14-10-00-000-02-00-5103360-2019-06-10t21-08-00-000-02-00-ec-102"}},{"to":"PRAGUE HLAVNI NADRAZI (Czech Republic)","byTrip":{"origin":{"type":"station","id":"8101003","name":"WIEN HBF (Austria)","location":{"type":"location","longitude":16.375829,"latitude":48.185004}},"destination":{"type":"station","id":"5457076","name":"PRAGUE HLAVNI NADRAZI (Czech Republic)","location":{"type":"location","longitude":14.435274,"latitude":50.081386}},"departure":"2019-06-10T11:10:00.000+02:00","arrival":"2019-06-10T15:07:00.000+02:00","operator":"interrail","mode":"train","public":true,"line":{"type":"line","id":"rj-74","name":"RJ    74","mode":"train","public":true},"id":"8101003-2019-06-10t11-10-00-000-02-00-5457076-2019-06-10t15-07-00-000-02-00-rj-74"}},{"to":"BUCURESTI NORD (Romania)","byTrip":{"origin":{"type":"station","id":"8101003","name":"WIEN HBF (Austria)","location":{"type":"location","longitude":16.375829,"latitude":48.185004}},"destination":{"type":"station","id":"5310017","name":"BUCURESTI NORD (Romania)","location":{"type":"location","longitude":26.074165,"latitude":44.44639}},"departure":"2019-06-10T19:42:00.000+02:00","arrival":"2019-06-11T16:06:00.000+02:00","operator":"interrail","mode":"train","public":true,"line":{"type":"line","id":"nt-347","name":"NT   347","mode":"train","public":true},"id":"8101003-2019-06-10t19-42-00-000-02-00-5310017-2019-06-11t16-06-00-000-02-00-nt-347"}},{"to":"KIEV-PASSAJIRSKII (Ukraine)","byTrip":{"origin":{"type":"station","id":"8101003","name":"WIEN HBF (Austria)","location":{"type":"location","longitude":16.375829,"latitude":48.185004}},"destination":{"type":"station","id":"2232030","name":"KIEV-PASSAJIRSKII (Ukraine)","location":{"type":"location","longitude":30.513973,"latitude":50.434357}},"departure":"2019-06-10T16:42:00.000+02:00","arrival":"2019-06-11T17:14:00.000+02:00","operator":"interrail","mode":"train","public":true,"line":{"type":"line","id":"ft-40147","name":"FT 40147","mode":"train","public":true},"id":"8101003-2019-06-10t16-42-00-000-02-00-2232030-2019-06-11t17-14-00-000-02-00-ft-40147"}},{"to":"KRAKOW GLOWNY (Poland)","byTrip":{"origin":{"type":"station","id":"8101003","name":"WIEN HBF (Austria)","location":{"type":"location","longitude":16.375829,"latitude":48.185004}},"destination":{"type":"station","id":"5108041","name":"KRAKOW GLOWNY (Poland)","location":{"type":"location","longitude":19.947774,"latitude":50.065835}},"departure":"2019-06-10T22:10:00.000+02:00","arrival":"2019-06-11T06:15:00.000+02:00","operator":"interrail","mode":"train","public":true,"line":{"type":"line","id":"en-40456","name":"EN 40456","mode":"train","public":true},"id":"8101003-2019-06-10t22-10-00-000-02-00-5108041-2019-06-11t06-15-00-000-02-00-en-40456"}}],"BUDAPEST-KELENFOELD (Hungary)":[{"to":"WIEN HBF (Austria)","byTrip":{"origin":{"type":"station","id":"8101003","name":"WIEN HBF (Austria)","location":{"type":"location","longitude":16.375829,"latitude":48.185004}},"destination":{"type":"station","id":"5501024","name":"BUDAPEST-KELENFOELD (Hungary)","location":{"type":"location","longitude":19.019997,"latitude":47.464447}},"departure":"2019-06-10T11:40:00.000+02:00","arrival":"2019-06-10T14:02:00.000+02:00","operator":"interrail","mode":"train","public":true,"line":{"type":"line","id":"ec-61","name":"EC    61","mode":"train","public":true},"id":"8101003-2019-06-10t11-40-00-000-02-00-5501024-2019-06-10t14-02-00-000-02-00-ec-61"}},{"to":"MUENCHEN HBF (Germany)","byTrip":{"origin":{"type":"station","id":"8020347","name":"MUENCHEN HBF (Germany)","location":{"type":"location","longitude":11.55833,"latitude":48.140274}},"destination":{"type":"station","id":"5501024","name":"BUDAPEST-KELENFOELD (Hungary)","location":{"type":"location","longitude":19.019997,"latitude":47.464447}},"departure":"2019-06-10T13:01:00.000+02:00","arrival":"2019-06-10T20:02:00.000+02:00","operator":"interrail","mode":"train","public":true,"line":{"type":"line","id":"ec-67","name":"EC    67","mode":"train","public":true},"id":"8020347-2019-06-10t13-01-00-000-02-00-5501024-2019-06-10t20-02-00-000-02-00-ec-67"}}],"ROMA TERMINI (Italy)":[{"to":"WIEN MEIDLING (Austria)","byTrip":{"origin":{"type":"station","id":"8103107","name":"WIEN MEIDLING (Austria)","location":{"type":"location","longitude":16.333058,"latitude":48.174442}},"destination":{"type":"station","id":"8308409","name":"ROMA TERMINI (Italy)","location":{"type":"location","longitude":12.501667,"latitude":41.900555}},"departure":"2019-06-10T19:31:00.000+02:00","arrival":"2019-06-11T09:22:00.000+02:00","operator":"interrail","mode":"train","public":true,"line":{"type":"line","id":"nj-40233","name":"NJ 40233","mode":"train","public":true},"id":"8103107-2019-06-10t19-31-00-000-02-00-8308409-2019-06-11t09-22-00-000-02-00-nj-40233"}},{"to":"MILANO CENTRALE (Italy)","byTrip":{"origin":{"type":"station","id":"8308409","name":"ROMA TERMINI (Italy)","location":{"type":"location","longitude":12.501667,"latitude":41.900555}},"destination":{"type":"station","id":"8301700","name":"MILANO CENTRALE (Italy)","location":{"type":"location","longitude":9.204163,"latitude":45.486388}},"departure":"2019-06-10T10:30:00.000+02:00","arrival":"2019-06-10T13:29:00.000+02:00","operator":"interrail","mode":"train","public":true,"line":{"type":"line","id":"fr-9620","name":"FR  9620","mode":"train","public":true},"id":"8308409-2019-06-10t10-30-00-000-02-00-8301700-2019-06-10t13-29-00-000-02-00-fr-9620"}}],"MILANO LAMBRATE (Italy)":[{"to":"WIEN MEIDLING (Austria)","byTrip":{"origin":{"type":"station","id":"8103107","name":"WIEN MEIDLING (Austria)","location":{"type":"location","longitude":16.333058,"latitude":48.174442}},"destination":{"type":"station","id":"8301701","name":"MILANO LAMBRATE (Italy)","location":{"type":"location","longitude":9.236947,"latitude":45.484725}},"departure":"2019-06-10T19:31:00.000+02:00","arrival":"2019-06-11T08:59:00.000+02:00","operator":"interrail","mode":"train","public":true,"line":{"type":"line","id":"nj-233","name":"NJ   233","mode":"train","public":true},"id":"8103107-2019-06-10t19-31-00-000-02-00-8301701-2019-06-11t08-59-00-000-02-00-nj-233"}}],"WARSZAWA CENTRALNA (Poland)":[{"to":"WIEN HBF (Austria)","byTrip":{"origin":{"type":"station","id":"8101003","name":"WIEN HBF (Austria)","location":{"type":"location","longitude":16.375829,"latitude":48.185004}},"destination":{"type":"station","id":"5103360","name":"WARSZAWA CENTRALNA (Poland)","location":{"type":"location","longitude":21.002775,"latitude":52.228613}},"departure":"2019-06-10T14:10:00.000+02:00","arrival":"2019-06-10T21:08:00.000+02:00","operator":"interrail","mode":"train","public":true,"line":{"type":"line","id":"ec-102","name":"EC   102","mode":"train","public":true},"id":"8101003-2019-06-10t14-10-00-000-02-00-5103360-2019-06-10t21-08-00-000-02-00-ec-102"}},{"to":"BUDAPEST-KELETI (Hungary)","byTrip":{"origin":{"type":"station","id":"5510017","name":"BUDAPEST-KELETI (Hungary)","location":{"type":"location","longitude":19.085241,"latitude":47.500628}},"destination":{"type":"station","id":"5103360","name":"WARSZAWA CENTRALNA (Poland)","location":{"type":"location","longitude":21.002775,"latitude":52.228613}},"departure":"2019-06-10T19:25:00.000+02:00","arrival":"2019-06-11T09:06:00.000+02:00","operator":"interrail","mode":"train","public":true,"line":{"type":"line","id":"en-476","name":"EN   476","mode":"train","public":true},"id":"5510017-2019-06-10t19-25-00-000-02-00-5103360-2019-06-11t09-06-00-000-02-00-en-476"}},{"to":"LODZ WIDZEW (Poland)","byTrip":{"origin":{"type":"station","id":"5103360","name":"WARSZAWA CENTRALNA (Poland)","location":{"type":"location","longitude":21.002775,"latitude":52.228613}},"destination":{"type":"station","id":"5104640","name":"LODZ WIDZEW (Poland)","location":{"type":"location","longitude":19.543331,"latitude":51.763052}},"departure":"2019-06-10T11:20:00.000+02:00","arrival":"2019-06-10T12:29:00.000+02:00","operator":"interrail","mode":"train","public":true,"line":{"type":"line","id":"ic-1614","name":"IC  1614","mode":"train","public":true},"id":"5103360-2019-06-10t11-20-00-000-02-00-5104640-2019-06-10t12-29-00-000-02-00-ic-1614"}},{"to":"KRAKOW GLOWNY (Poland)","byTrip":{"origin":{"type":"station","id":"5103360","name":"WARSZAWA CENTRALNA (Poland)","location":{"type":"location","longitude":21.002775,"latitude":52.228613}},"destination":{"type":"station","id":"5108041","name":"KRAKOW GLOWNY (Poland)","location":{"type":"location","longitude":19.947774,"latitude":50.065835}},"departure":"2019-06-10T11:45:00.000+02:00","arrival":"2019-06-10T14:03:00.000+02:00","operator":"interrail","mode":"train","public":true,"line":{"type":"line","id":"eip-8300","name":"EIP 8300","mode":"train","public":true},"id":"5103360-2019-06-10t11-45-00-000-02-00-5108041-2019-06-10t14-03-00-000-02-00-eip-8300"}}],"BERLIN SUEDKREUZ (Germany)":[{"to":"MUENCHEN HBF (Germany)","byTrip":{"origin":{"type":"station","id":"8020347","name":"MUENCHEN HBF (Germany)","location":{"type":"location","longitude":11.55833,"latitude":48.140274}},"destination":{"type":"station","id":"8065971","name":"BERLIN SUEDKREUZ (Germany)","location":{"type":"location","longitude":13.365279,"latitude":52.474998}},"departure":"2019-06-10T10:43:00.000+02:00","arrival":"2019-06-10T15:22:00.000+02:00","operator":"interrail","mode":"train","public":true,"line":{"type":"line","id":"ice-508","name":"ICE  508","mode":"train","public":true},"id":"8020347-2019-06-10t10-43-00-000-02-00-8065971-2019-06-10t15-22-00-000-02-00-ice-508"}}],"BERLIN HBF (TIEF) (Germany)":[{"to":"HAMBURG HBF (Germany)","byTrip":{"origin":{"type":"station","id":"8001071","name":"HAMBURG HBF (Germany)","location":{"type":"location","longitude":10.006945,"latitude":53.552778}},"destination":{"type":"station","id":"8031922","name":"BERLIN HBF (TIEF) (Germany)","location":{"type":"location","longitude":13.369441,"latitude":52.525553}},"departure":"2019-06-10T10:35:00.000+02:00","arrival":"2019-06-10T12:20:00.000+02:00","operator":"interrail","mode":"train","public":true,"line":{"type":"line","id":"ice-705","name":"ICE  705","mode":"train","public":true},"id":"8001071-2019-06-10t10-35-00-000-02-00-8031922-2019-06-10t12-20-00-000-02-00-ice-705"}},{"to":"MANNHEIM HBF (Germany)","byTrip":{"origin":{"type":"station","id":"8014008","name":"MANNHEIM HBF (Germany)","location":{"type":"location","longitude":8.46889,"latitude":49.479442}},"destination":{"type":"station","id":"8031922","name":"BERLIN HBF (TIEF) (Germany)","location":{"type":"location","longitude":13.369441,"latitude":52.525553}},"departure":"2019-06-10T10:32:00.000+02:00","arrival":"2019-06-10T16:01:00.000+02:00","operator":"interrail","mode":"train","public":true,"line":{"type":"line","id":"ice-372","name":"ICE  372","mode":"train","public":true},"id":"8014008-2019-06-10t10-32-00-000-02-00-8031922-2019-06-10t16-01-00-000-02-00-ice-372"}}],"Koebenhavn H (Denmark)":[{"to":"HAMBURG HBF (Germany)","byTrip":{"origin":{"type":"station","id":"8001071","name":"HAMBURG HBF (Germany)","location":{"type":"location","longitude":10.006945,"latitude":53.552778}},"destination":{"type":"station","id":"8600626","name":"Koebenhavn H (Denmark)","location":{"type":"location","longitude":12.565553,"latitude":55.673054}},"departure":"2019-06-10T23:42:00.000+02:00","arrival":"2019-06-11T06:53:00.000+02:00","operator":"interrail","mode":"train","public":true,"line":{"type":"line","id":"ic-431","name":"IC   431","mode":"train","public":true},"id":"8001071-2019-06-10t23-42-00-000-02-00-8600626-2019-06-11t06-53-00-000-02-00-ic-431"}}],"MILANO CENTRALE (Italy)":[{"to":"ROMA TERMINI (Italy)","byTrip":{"origin":{"type":"station","id":"8308409","name":"ROMA TERMINI (Italy)","location":{"type":"location","longitude":12.501667,"latitude":41.900555}},"destination":{"type":"station","id":"8301700","name":"MILANO CENTRALE (Italy)","location":{"type":"location","longitude":9.204163,"latitude":45.486388}},"departure":"2019-06-10T10:30:00.000+02:00","arrival":"2019-06-10T13:29:00.000+02:00","operator":"interrail","mode":"train","public":true,"line":{"type":"line","id":"fr-9620","name":"FR  9620","mode":"train","public":true},"id":"8308409-2019-06-10t10-30-00-000-02-00-8301700-2019-06-10t13-29-00-000-02-00-fr-9620"}},{"to":"TORINO PORTA SUSA (Italy)","byTrip":{"origin":{"type":"station","id":"8300035","name":"TORINO PORTA SUSA (Italy)","location":{"type":"location","longitude":7.666945,"latitude":45.07417}},"destination":{"type":"station","id":"8301700","name":"MILANO CENTRALE (Italy)","location":{"type":"location","longitude":9.204163,"latitude":45.486388}},"departure":"2019-06-10T10:43:00.000+02:00","arrival":"2019-06-10T11:33:00.000+02:00","operator":"interrail","mode":"train","public":true,"line":{"type":"line","id":"fr-9723","name":"FR  9723","mode":"train","public":true},"id":"8300035-2019-06-10t10-43-00-000-02-00-8301700-2019-06-10t11-33-00-000-02-00-fr-9723"}},{"to":"NICE VILLE (France)","byTrip":{"origin":{"type":"station","id":"8775605","name":"NICE VILLE (France)","location":{"type":"location","longitude":7.261945,"latitude":43.704726}},"destination":{"type":"station","id":"8301700","name":"MILANO CENTRALE (Italy)","location":{"type":"location","longitude":9.204163,"latitude":45.486388}},"departure":"2019-06-10T14:02:00.000+02:00","arrival":"2019-06-10T18:53:00.000+02:00","operator":"interrail","mode":"train","public":true,"line":{"type":"line","id":"ec-145","name":"EC   145","mode":"train","public":true},"id":"8775605-2019-06-10t14-02-00-000-02-00-8301700-2019-06-10t18-53-00-000-02-00-ec-145"}}],"UFA (Russia)":[{"to":"MOSKVA KAZANSKAIA (Russia)","byTrip":{"origin":{"type":"station","id":"2065450","name":"UFA (Russia)","location":{"type":"location","longitude":55.936366,"latitude":54.810683}},"destination":{"type":"station","id":"2019390","name":"MOSKVA KAZANSKAIA (Russia)","location":{"type":"location","longitude":37.657602,"latitude":55.773778}},"departure":"2019-06-10T23:47:00.000+02:00","arrival":"2019-06-12T05:12:00.000+02:00","operator":"interrail","mode":"train","public":true,"line":{"type":"line","id":"nt-115ji","name":"NT 115JI","mode":"train","public":true},"id":"2065450-2019-06-10t23-47-00-000-02-00-2019390-2019-06-12t05-12-00-000-02-00-nt-115ji"}},{"to":"SARATOV 1 PASS (Russia)","byTrip":{"origin":{"type":"station","id":"2065450","name":"UFA (Russia)","location":{"type":"location","longitude":55.936366,"latitude":54.810683}},"destination":{"type":"station","id":"2062000","name":"SARATOV 1 PASS (Russia)","location":{"type":"location","longitude":46.022199,"latitude":51.537846}},"departure":"2019-06-11T13:24:00.000+02:00","arrival":"2019-06-12T07:47:00.000+02:00","operator":"interrail","mode":"train","public":true,"line":{"type":"line","id":"nt-147ej","name":"NT 147EJ","mode":"train","public":true},"id":"2065450-2019-06-11t13-24-00-000-02-00-2062000-2019-06-12t07-47-00-000-02-00-nt-147ej"}},{"to":"EKATERINBURG-PASSAJIRS (Russia)","byTrip":{"origin":{"type":"station","id":"2065450","name":"UFA (Russia)","location":{"type":"location","longitude":55.936366,"latitude":54.810683}},"destination":{"type":"station","id":"2078050","name":"EKATERINBURG-PASSAJIRS (Russia)","location":{"type":"location","longitude":60.604653,"latitude":56.867011}},"departure":"2019-06-11T06:23:00.000+02:00","arrival":"2019-06-11T20:55:00.000+02:00","operator":"interrail","mode":"train","public":true,"line":{"type":"line","id":"nt-102ji","name":"NT 102JI","mode":"train","public":true},"id":"2065450-2019-06-11t06-23-00-000-02-00-2078050-2019-06-11t20-55-00-000-02-00-nt-102ji"}},{"to":"ULIANOVSK CENTR (Russia)","byTrip":{"origin":{"type":"station","id":"2064480","name":"ULIANOVSK CENTR (Russia)","location":{"type":"location","longitude":48.322449,"latitude":54.27205}},"destination":{"type":"station","id":"2065450","name":"UFA (Russia)","location":{"type":"location","longitude":55.936366,"latitude":54.810683}},"departure":"2019-06-11T04:01:00.000+02:00","arrival":"2019-06-11T16:47:00.000+02:00","operator":"interrail","mode":"train","public":true,"line":{"type":"line","id":"nt-116ji","name":"NT 116JI","mode":"train","public":true},"id":"2064480-2019-06-11t04-01-00-000-02-00-2065450-2019-06-11t16-47-00-000-02-00-nt-116ji"}}],"MOSKVA KAZANSKAIA (Russia)":[{"to":"UFA (Russia)","byTrip":{"origin":{"type":"station","id":"2065450","name":"UFA (Russia)","location":{"type":"location","longitude":55.936366,"latitude":54.810683}},"destination":{"type":"station","id":"2019390","name":"MOSKVA KAZANSKAIA (Russia)","location":{"type":"location","longitude":37.657602,"latitude":55.773778}},"departure":"2019-06-10T23:47:00.000+02:00","arrival":"2019-06-12T05:12:00.000+02:00","operator":"interrail","mode":"train","public":true,"line":{"type":"line","id":"nt-115ji","name":"NT 115JI","mode":"train","public":true},"id":"2065450-2019-06-10t23-47-00-000-02-00-2019390-2019-06-12t05-12-00-000-02-00-nt-115ji"}},{"to":"KAZAN (Russia)","byTrip":{"origin":{"type":"station","id":"2019390","name":"MOSKVA KAZANSKAIA (Russia)","location":{"type":"location","longitude":37.657602,"latitude":55.773778}},"destination":{"type":"station","id":"2025030","name":"KAZAN (Russia)","location":{"type":"location","longitude":49.098982,"latitude":55.78879}},"departure":"2019-06-10T13:10:00.000+02:00","arrival":"2019-06-11T02:05:00.000+02:00","operator":"interrail","mode":"train","public":true,"line":{"type":"line","id":"nt-82ij","name":"NT  82IJ","mode":"train","public":true},"id":"2019390-2019-06-10t13-10-00-000-02-00-2025030-2019-06-11t02-05-00-000-02-00-nt-82ij"}},{"to":"SARATOV 1 PASS (Russia)","byTrip":{"origin":{"type":"station","id":"2062000","name":"SARATOV 1 PASS (Russia)","location":{"type":"location","longitude":46.022199,"latitude":51.537846}},"destination":{"type":"station","id":"2019390","name":"MOSKVA KAZANSKAIA (Russia)","location":{"type":"location","longitude":37.657602,"latitude":55.773778}},"departure":"2019-06-10T13:41:00.000+02:00","arrival":"2019-06-11T05:30:00.000+02:00","operator":"interrail","mode":"train","public":true,"line":{"type":"line","id":"nt-85sj","name":"NT  85SJ","mode":"train","public":true},"id":"2062000-2019-06-10t13-41-00-000-02-00-2019390-2019-06-11t05-30-00-000-02-00-nt-85sj"}},{"to":"EKATERINBURG-PASSAJIRS (Russia)","byTrip":{"origin":{"type":"station","id":"2019390","name":"MOSKVA KAZANSKAIA (Russia)","location":{"type":"location","longitude":37.657602,"latitude":55.773778}},"destination":{"type":"station","id":"2078050","name":"EKATERINBURG-PASSAJIRS (Russia)","location":{"type":"location","longitude":60.604653,"latitude":56.867011}},"departure":"2019-06-10T13:10:00.000+02:00","arrival":"2019-06-11T15:59:00.000+02:00","operator":"interrail","mode":"train","public":true,"line":{"type":"line","id":"nt-82ij","name":"NT  82IJ","mode":"train","public":true},"id":"2019390-2019-06-10t13-10-00-000-02-00-2078050-2019-06-11t15-59-00-000-02-00-nt-82ij"}},{"to":"OMSK PASS (Russia)","byTrip":{"origin":{"type":"station","id":"2019390","name":"MOSKVA KAZANSKAIA (Russia)","location":{"type":"location","longitude":37.657602,"latitude":55.773778}},"destination":{"type":"station","id":"2083070","name":"OMSK PASS (Russia)","location":{"type":"location","longitude":73.357767,"latitude":54.937997}},"departure":"2019-06-10T13:10:00.000+02:00","arrival":"2019-06-12T05:56:00.000+02:00","operator":"interrail","mode":"train","public":true,"line":{"type":"line","id":"nt-82ij","name":"NT  82IJ","mode":"train","public":true},"id":"2019390-2019-06-10t13-10-00-000-02-00-2083070-2019-06-12t05-56-00-000-02-00-nt-82ij"}},{"to":"NOVOSIBIRSK GL (Russia)","byTrip":{"origin":{"type":"station","id":"2019390","name":"MOSKVA KAZANSKAIA (Russia)","location":{"type":"location","longitude":37.657602,"latitude":55.773778}},"destination":{"type":"station","id":"2085060","name":"NOVOSIBIRSK GL (Russia)","location":{"type":"location","longitude":82.863832,"latitude":55.06124}},"departure":"2019-06-10T13:10:00.000+02:00","arrival":"2019-06-12T14:06:00.000+02:00","operator":"interrail","mode":"train","public":true,"line":{"type":"line","id":"nt-82ij","name":"NT  82IJ","mode":"train","public":true},"id":"2019390-2019-06-10t13-10-00-000-02-00-2085060-2019-06-12t14-06-00-000-02-00-nt-82ij"}},{"to":"SARANSK (Russia)","byTrip":{"origin":{"type":"station","id":"2064160","name":"SARANSK (Russia)","location":{"type":"location","longitude":45.6396,"latitude":54.377008}},"destination":{"type":"station","id":"2019390","name":"MOSKVA KAZANSKAIA (Russia)","location":{"type":"location","longitude":37.657602,"latitude":55.773778}},"departure":"2019-06-10T20:43:00.000+02:00","arrival":"2019-06-11T06:00:00.000+02:00","operator":"interrail","mode":"train","public":true,"line":{"type":"line","id":"nt-41ji","name":"NT  41JI","mode":"train","public":true},"id":"2064160-2019-06-10t20-43-00-000-02-00-2019390-2019-06-11t06-00-00-000-02-00-nt-41ji"}}],"SAMARA (Russia)":[{"to":"KAZAN (Russia)","byTrip":{"origin":{"type":"station","id":"2065790","name":"SAMARA (Russia)","location":{"type":"location","longitude":50.174326,"latitude":53.12686}},"destination":{"type":"station","id":"2025030","name":"KAZAN (Russia)","location":{"type":"location","longitude":49.098982,"latitude":55.78879}},"departure":"2019-06-10T19:26:00.000+02:00","arrival":"2019-06-11T06:20:00.000+02:00","operator":"interrail","mode":"train","public":true,"line":{"type":"line","id":"nt-125ji","name":"NT 125JI","mode":"train","public":true},"id":"2065790-2019-06-10t19-26-00-000-02-00-2025030-2019-06-11t06-20-00-000-02-00-nt-125ji"}},{"to":"CHELIABINSK-GLAVNYI (Russia)","byTrip":{"origin":{"type":"station","id":"2065790","name":"SAMARA (Russia)","location":{"type":"location","longitude":50.174326,"latitude":53.12686}},"destination":{"type":"station","id":"2080000","name":"CHELIABINSK-GLAVNYI (Russia)","location":{"type":"location","longitude":61.415292,"latitude":55.139527}},"departure":"2019-06-10T12:09:00.000+02:00","arrival":"2019-06-11T05:05:00.000+02:00","operator":"interrail","mode":"train","public":true,"line":{"type":"line","id":"nt-14ej","name":"NT  14EJ","mode":"train","public":true},"id":"2065790-2019-06-10t12-09-00-000-02-00-2080000-2019-06-11t05-05-00-000-02-00-nt-14ej"}},{"to":"SARATOV 1 PASS (Russia)","byTrip":{"origin":{"type":"station","id":"2062000","name":"SARATOV 1 PASS (Russia)","location":{"type":"location","longitude":46.022199,"latitude":51.537846}},"destination":{"type":"station","id":"2065790","name":"SAMARA (Russia)","location":{"type":"location","longitude":50.174326,"latitude":53.12686}},"departure":"2019-06-10T15:57:00.000+02:00","arrival":"2019-06-11T00:53:00.000+02:00","operator":"interrail","mode":"train","public":true,"line":{"type":"line","id":"nt-373sj","name":"NT 373SJ","mode":"train","public":true},"id":"2062000-2019-06-10t15-57-00-000-02-00-2065790-2019-06-11t00-53-00-000-02-00-nt-373sj"}},{"to":"NIJNII NOVGOROD MOSKOV (Russia)","byTrip":{"origin":{"type":"station","id":"2065790","name":"SAMARA (Russia)","location":{"type":"location","longitude":50.174326,"latitude":53.12686}},"destination":{"type":"station","id":"2026020","name":"NIJNII NOVGOROD MOSKOV (Russia)","location":{"type":"location","longitude":43.94357,"latitude":56.321689}},"departure":"2019-06-10T20:51:00.000+02:00","arrival":"2019-06-11T13:12:00.000+02:00","operator":"interrail","mode":"train","public":true,"line":{"type":"line","id":"nt-337ji","name":"NT 337JI","mode":"train","public":true},"id":"2065790-2019-06-10t20-51-00-000-02-00-2026020-2019-06-11t13-12-00-000-02-00-nt-337ji"}}],"KAZAN (Russia)":[{"to":"SAMARA (Russia)","byTrip":{"origin":{"type":"station","id":"2065790","name":"SAMARA (Russia)","location":{"type":"location","longitude":50.174326,"latitude":53.12686}},"destination":{"type":"station","id":"2025030","name":"KAZAN (Russia)","location":{"type":"location","longitude":49.098982,"latitude":55.78879}},"departure":"2019-06-10T19:26:00.000+02:00","arrival":"2019-06-11T06:20:00.000+02:00","operator":"interrail","mode":"train","public":true,"line":{"type":"line","id":"nt-125ji","name":"NT 125JI","mode":"train","public":true},"id":"2065790-2019-06-10t19-26-00-000-02-00-2025030-2019-06-11t06-20-00-000-02-00-nt-125ji"}},{"to":"MOSKVA KAZANSKAIA (Russia)","byTrip":{"origin":{"type":"station","id":"2019390","name":"MOSKVA KAZANSKAIA (Russia)","location":{"type":"location","longitude":37.657602,"latitude":55.773778}},"destination":{"type":"station","id":"2025030","name":"KAZAN (Russia)","location":{"type":"location","longitude":49.098982,"latitude":55.78879}},"departure":"2019-06-10T13:10:00.000+02:00","arrival":"2019-06-11T02:05:00.000+02:00","operator":"interrail","mode":"train","public":true,"line":{"type":"line","id":"nt-82ij","name":"NT  82IJ","mode":"train","public":true},"id":"2019390-2019-06-10t13-10-00-000-02-00-2025030-2019-06-11t02-05-00-000-02-00-nt-82ij"}},{"to":"NIJNII NOVGOROD MOSKOV (Russia)","byTrip":{"origin":{"type":"station","id":"2026020","name":"NIJNII NOVGOROD MOSKOV (Russia)","location":{"type":"location","longitude":43.94357,"latitude":56.321689}},"destination":{"type":"station","id":"2025030","name":"KAZAN (Russia)","location":{"type":"location","longitude":49.098982,"latitude":55.78879}},"departure":"2019-06-10T20:48:00.000+02:00","arrival":"2019-06-11T05:18:00.000+02:00","operator":"interrail","mode":"train","public":true,"line":{"type":"line","id":"nt-51gj","name":"NT  51GJ","mode":"train","public":true},"id":"2026020-2019-06-10t20-48-00-000-02-00-2025030-2019-06-11t05-18-00-000-02-00-nt-51gj"}},{"to":"OMSK PASS (Russia)","byTrip":{"origin":{"type":"station","id":"2025030","name":"KAZAN (Russia)","location":{"type":"location","longitude":49.098982,"latitude":55.78879}},"destination":{"type":"station","id":"2083070","name":"OMSK PASS (Russia)","location":{"type":"location","longitude":73.357767,"latitude":54.937997}},"departure":"2019-06-10T15:55:00.000+02:00","arrival":"2019-06-11T20:15:00.000+02:00","operator":"interrail","mode":"train","public":true,"line":{"type":"line","id":"nt-140sj","name":"NT 140SJ","mode":"train","public":true},"id":"2025030-2019-06-10t15-55-00-000-02-00-2083070-2019-06-11t20-15-00-000-02-00-nt-140sj"}},{"to":"NOVOSIBIRSK GL (Russia)","byTrip":{"origin":{"type":"station","id":"2025030","name":"KAZAN (Russia)","location":{"type":"location","longitude":49.098982,"latitude":55.78879}},"destination":{"type":"station","id":"2085060","name":"NOVOSIBIRSK GL (Russia)","location":{"type":"location","longitude":82.863832,"latitude":55.06124}},"departure":"2019-06-10T15:55:00.000+02:00","arrival":"2019-06-12T04:59:00.000+02:00","operator":"interrail","mode":"train","public":true,"line":{"type":"line","id":"nt-140sj","name":"NT 140SJ","mode":"train","public":true},"id":"2025030-2019-06-10t15-55-00-000-02-00-2085060-2019-06-12t04-59-00-000-02-00-nt-140sj"}},{"to":"KRASNOIARSK (Russia)","byTrip":{"origin":{"type":"station","id":"2025030","name":"KAZAN (Russia)","location":{"type":"location","longitude":49.098982,"latitude":55.78879}},"destination":{"type":"station","id":"2089000","name":"KRASNOIARSK (Russia)","location":{"type":"location","longitude":92.828654,"latitude":56.006096}},"departure":"2019-06-11T02:13:00.000+02:00","arrival":"2019-06-13T02:40:00.000+02:00","operator":"interrail","mode":"train","public":true,"line":{"type":"line","id":"nt-82ij","name":"NT  82IJ","mode":"train","public":true},"id":"2025030-2019-06-11t02-13-00-000-02-00-2089000-2019-06-13t02-40-00-000-02-00-nt-82ij"}}],"CHELIABINSK-GLAVNYI (Russia)":[{"to":"SAMARA (Russia)","byTrip":{"origin":{"type":"station","id":"2065790","name":"SAMARA (Russia)","location":{"type":"location","longitude":50.174326,"latitude":53.12686}},"destination":{"type":"station","id":"2080000","name":"CHELIABINSK-GLAVNYI (Russia)","location":{"type":"location","longitude":61.415292,"latitude":55.139527}},"departure":"2019-06-10T12:09:00.000+02:00","arrival":"2019-06-11T05:05:00.000+02:00","operator":"interrail","mode":"train","public":true,"line":{"type":"line","id":"nt-14ej","name":"NT  14EJ","mode":"train","public":true},"id":"2065790-2019-06-10t12-09-00-000-02-00-2080000-2019-06-11t05-05-00-000-02-00-nt-14ej"}},{"to":"VOLGOGRAD 1 (Russia)","byTrip":{"origin":{"type":"station","id":"2061000","name":"VOLGOGRAD 1 (Russia)","location":{"type":"location","longitude":44.512848,"latitude":48.712428}},"destination":{"type":"station","id":"2080000","name":"CHELIABINSK-GLAVNYI (Russia)","location":{"type":"location","longitude":61.415292,"latitude":55.139527}},"departure":"2019-06-11T09:24:00.000+02:00","arrival":"2019-06-13T03:00:00.000+02:00","operator":"interrail","mode":"train","public":true,"line":{"type":"line","id":"nt-344sj","name":"NT 344SJ","mode":"train","public":true},"id":"2061000-2019-06-11t09-24-00-000-02-00-2080000-2019-06-13t03-00-00-000-02-00-nt-344sj"}},{"to":"NIJNII NOVGOROD MOSKOV (Russia)","byTrip":{"origin":{"type":"station","id":"2026020","name":"NIJNII NOVGOROD MOSKOV (Russia)","location":{"type":"location","longitude":43.94357,"latitude":56.321689}},"destination":{"type":"station","id":"2080000","name":"CHELIABINSK-GLAVNYI (Russia)","location":{"type":"location","longitude":61.415292,"latitude":55.139527}},"departure":"2019-06-12T04:40:00.000+02:00","arrival":"2019-06-13T07:25:00.000+02:00","operator":"interrail","mode":"train","public":true,"line":{"type":"line","id":"nt-145aj","name":"NT 145AJ","mode":"train","public":true},"id":"2026020-2019-06-12t04-40-00-000-02-00-2080000-2019-06-13t07-25-00-000-02-00-nt-145aj"}},{"to":"EKATERINBURG-PASSAJIRS (Russia)","byTrip":{"origin":{"type":"station","id":"2078050","name":"EKATERINBURG-PASSAJIRS (Russia)","location":{"type":"location","longitude":60.604653,"latitude":56.867011}},"destination":{"type":"station","id":"2080000","name":"CHELIABINSK-GLAVNYI (Russia)","location":{"type":"location","longitude":61.415292,"latitude":55.139527}},"departure":"2019-06-10T11:03:00.000+02:00","arrival":"2019-06-10T16:02:00.000+02:00","operator":"interrail","mode":"train","public":true,"line":{"type":"line","id":"nt-101ji","name":"NT 101JI","mode":"train","public":true},"id":"2078050-2019-06-10t11-03-00-000-02-00-2080000-2019-06-10t16-02-00-000-02-00-nt-101ji"}},{"to":"NIJNII TAGIL (Russia)","byTrip":{"origin":{"type":"station","id":"2077010","name":"NIJNII TAGIL (Russia)","location":{"type":"location","longitude":59.994915,"latitude":57.909795}},"destination":{"type":"station","id":"2080000","name":"CHELIABINSK-GLAVNYI (Russia)","location":{"type":"location","longitude":61.415292,"latitude":55.139527}},"departure":"2019-06-10T15:47:00.000+02:00","arrival":"2019-06-11T01:46:00.000+02:00","operator":"interrail","mode":"train","public":true,"line":{"type":"line","id":"nt-352ej","name":"NT 352EJ","mode":"train","public":true},"id":"2077010-2019-06-10t15-47-00-000-02-00-2080000-2019-06-11t01-46-00-000-02-00-nt-352ej"}}],"ROSTOV-IAROSLAVSKII (Russia)":[{"to":"EKATERINBURG-PASSAJIRS (Russia)","byTrip":{"origin":{"type":"station","id":"2031430","name":"ROSTOV-IAROSLAVSKII (Russia)","location":{"type":"location","longitude":39.485361,"latitude":57.386938}},"destination":{"type":"station","id":"2078050","name":"EKATERINBURG-PASSAJIRS (Russia)","location":{"type":"location","longitude":60.604653,"latitude":56.867011}},"departure":"2019-06-10T17:00:00.000+02:00","arrival":"2019-06-11T19:16:00.000+02:00","operator":"interrail","mode":"train","public":true,"line":{"type":"line","id":"nt-70ch","name":"NT  70CH","mode":"train","public":true},"id":"2031430-2019-06-10t17-00-00-000-02-00-2078050-2019-06-11t19-16-00-000-02-00-nt-70ch"}},{"to":"MOSKVA IAROSLAVSKAIA (Russia)","byTrip":{"origin":{"type":"station","id":"2031430","name":"ROSTOV-IAROSLAVSKII (Russia)","location":{"type":"location","longitude":39.485361,"latitude":57.386938}},"destination":{"type":"station","id":"2019550","name":"MOSKVA IAROSLAVSKAIA (Russia)","location":{"type":"location","longitude":37.655948,"latitude":55.776179}},"departure":"2019-06-10T12:34:00.000+02:00","arrival":"2019-06-10T15:43:00.000+02:00","operator":"interrail","mode":"train","public":true,"line":{"type":"line","id":"nt-375ja","name":"NT 375JA","mode":"train","public":true},"id":"2031430-2019-06-10t12-34-00-000-02-00-2019550-2019-06-10t15-43-00-000-02-00-nt-375ja"}},{"to":"NOVOSIBIRSK GL (Russia)","byTrip":{"origin":{"type":"station","id":"2031430","name":"ROSTOV-IAROSLAVSKII (Russia)","location":{"type":"location","longitude":39.485361,"latitude":57.386938}},"destination":{"type":"station","id":"2085060","name":"NOVOSIBIRSK GL (Russia)","location":{"type":"location","longitude":82.863832,"latitude":55.06124}},"departure":"2019-06-10T17:00:00.000+02:00","arrival":"2019-06-12T16:11:00.000+02:00","operator":"interrail","mode":"train","public":true,"line":{"type":"line","id":"nt-70ch","name":"NT  70CH","mode":"train","public":true},"id":"2031430-2019-06-10t17-00-00-000-02-00-2085060-2019-06-12t16-11-00-000-02-00-nt-70ch"}},{"to":"YAROSLAVL (Russia)","byTrip":{"origin":{"type":"station","id":"2031010","name":"YAROSLAVL (Russia)","location":{"type":"location","longitude":39.81184,"latitude":57.566776}},"destination":{"type":"station","id":"2031430","name":"ROSTOV-IAROSLAVSKII (Russia)","location":{"type":"location","longitude":39.485361,"latitude":57.386938}},"departure":"2019-06-11T01:48:00.000+02:00","arrival":"2019-06-11T02:36:00.000+02:00","operator":"interrail","mode":"train","public":true,"line":{"type":"line","id":"nt-147ja","name":"NT 147JA","mode":"train","public":true},"id":"2031010-2019-06-11t01-48-00-000-02-00-2031430-2019-06-11t02-36-00-000-02-00-nt-147ja"}}],"EKATERINBURG-PASSAJIRS (Russia)":[{"to":"ROSTOV-IAROSLAVSKII (Russia)","byTrip":{"origin":{"type":"station","id":"2031430","name":"ROSTOV-IAROSLAVSKII (Russia)","location":{"type":"location","longitude":39.485361,"latitude":57.386938}},"destination":{"type":"station","id":"2078050","name":"EKATERINBURG-PASSAJIRS (Russia)","location":{"type":"location","longitude":60.604653,"latitude":56.867011}},"departure":"2019-06-10T17:00:00.000+02:00","arrival":"2019-06-11T19:16:00.000+02:00","operator":"interrail","mode":"train","public":true,"line":{"type":"line","id":"nt-70ch","name":"NT  70CH","mode":"train","public":true},"id":"2031430-2019-06-10t17-00-00-000-02-00-2078050-2019-06-11t19-16-00-000-02-00-nt-70ch"}},{"to":"UFA (Russia)","byTrip":{"origin":{"type":"station","id":"2065450","name":"UFA (Russia)","location":{"type":"location","longitude":55.936366,"latitude":54.810683}},"destination":{"type":"station","id":"2078050","name":"EKATERINBURG-PASSAJIRS (Russia)","location":{"type":"location","longitude":60.604653,"latitude":56.867011}},"departure":"2019-06-11T06:23:00.000+02:00","arrival":"2019-06-11T20:55:00.000+02:00","operator":"interrail","mode":"train","public":true,"line":{"type":"line","id":"nt-102ji","name":"NT 102JI","mode":"train","public":true},"id":"2065450-2019-06-11t06-23-00-000-02-00-2078050-2019-06-11t20-55-00-000-02-00-nt-102ji"}},{"to":"MOSKVA KAZANSKAIA (Russia)","byTrip":{"origin":{"type":"station","id":"2019390","name":"MOSKVA KAZANSKAIA (Russia)","location":{"type":"location","longitude":37.657602,"latitude":55.773778}},"destination":{"type":"station","id":"2078050","name":"EKATERINBURG-PASSAJIRS (Russia)","location":{"type":"location","longitude":60.604653,"latitude":56.867011}},"departure":"2019-06-10T13:10:00.000+02:00","arrival":"2019-06-11T15:59:00.000+02:00","operator":"interrail","mode":"train","public":true,"line":{"type":"line","id":"nt-82ij","name":"NT  82IJ","mode":"train","public":true},"id":"2019390-2019-06-10t13-10-00-000-02-00-2078050-2019-06-11t15-59-00-000-02-00-nt-82ij"}},{"to":"NOVOSIBIRSK GL (Russia)","byTrip":{"origin":{"type":"station","id":"2078050","name":"EKATERINBURG-PASSAJIRS (Russia)","location":{"type":"location","longitude":60.604653,"latitude":56.867011}},"destination":{"type":"station","id":"2085060","name":"NOVOSIBIRSK GL (Russia)","location":{"type":"location","longitude":82.863832,"latitude":55.06124}},"departure":"2019-06-10T16:42:00.000+02:00","arrival":"2019-06-11T14:06:00.000+02:00","operator":"interrail","mode":"train","public":true,"line":{"type":"line","id":"nt-76ei","name":"NT  76EI","mode":"train","public":true},"id":"2078050-2019-06-10t16-42-00-000-02-00-2085060-2019-06-11t14-06-00-000-02-00-nt-76ei"}},{"to":"CHELIABINSK-GLAVNYI (Russia)","byTrip":{"origin":{"type":"station","id":"2078050","name":"EKATERINBURG-PASSAJIRS (Russia)","location":{"type":"location","longitude":60.604653,"latitude":56.867011}},"destination":{"type":"station","id":"2080000","name":"CHELIABINSK-GLAVNYI (Russia)","location":{"type":"location","longitude":61.415292,"latitude":55.139527}},"departure":"2019-06-10T11:03:00.000+02:00","arrival":"2019-06-10T16:02:00.000+02:00","operator":"interrail","mode":"train","public":true,"line":{"type":"line","id":"nt-101ji","name":"NT 101JI","mode":"train","public":true},"id":"2078050-2019-06-10t11-03-00-000-02-00-2080000-2019-06-10t16-02-00-000-02-00-nt-101ji"}},{"to":"YAROSLAVL (Russia)","byTrip":{"origin":{"type":"station","id":"2031010","name":"YAROSLAVL (Russia)","location":{"type":"location","longitude":39.81184,"latitude":57.566776}},"destination":{"type":"station","id":"2078050","name":"EKATERINBURG-PASSAJIRS (Russia)","location":{"type":"location","longitude":60.604653,"latitude":56.867011}},"departure":"2019-06-11T04:48:00.000+02:00","arrival":"2019-06-12T09:16:00.000+02:00","operator":"interrail","mode":"train","public":true,"line":{"type":"line","id":"nt-100ei","name":"NT 100EI","mode":"train","public":true},"id":"2031010-2019-06-11t04-48-00-000-02-00-2078050-2019-06-12t09-16-00-000-02-00-nt-100ei"}},{"to":"ULIANOVSK CENTR (Russia)","byTrip":{"origin":{"type":"station","id":"2064480","name":"ULIANOVSK CENTR (Russia)","location":{"type":"location","longitude":48.322449,"latitude":54.27205}},"destination":{"type":"station","id":"2078050","name":"EKATERINBURG-PASSAJIRS (Russia)","location":{"type":"location","longitude":60.604653,"latitude":56.867011}},"departure":"2019-06-10T17:10:00.000+02:00","arrival":"2019-06-11T14:21:00.000+02:00","operator":"interrail","mode":"train","public":true,"line":{"type":"line","id":"nt-105zh","name":"NT 105ZH","mode":"train","public":true},"id":"2064480-2019-06-10t17-10-00-000-02-00-2078050-2019-06-11t14-21-00-000-02-00-nt-105zh"}}],"PRAGUE HLAVNI NADRAZI (Czech Republic)":[{"to":"WIEN HBF (Austria)","byTrip":{"origin":{"type":"station","id":"8101003","name":"WIEN HBF (Austria)","location":{"type":"location","longitude":16.375829,"latitude":48.185004}},"destination":{"type":"station","id":"5457076","name":"PRAGUE HLAVNI NADRAZI (Czech Republic)","location":{"type":"location","longitude":14.435274,"latitude":50.081386}},"departure":"2019-06-10T11:10:00.000+02:00","arrival":"2019-06-10T15:07:00.000+02:00","operator":"interrail","mode":"train","public":true,"line":{"type":"line","id":"rj-74","name":"RJ    74","mode":"train","public":true},"id":"8101003-2019-06-10t11-10-00-000-02-00-5457076-2019-06-10t15-07-00-000-02-00-rj-74"}},{"to":"BRATISLAVA HLAVNA STANICA (Slovakia)","byTrip":{"origin":{"type":"station","id":"5457076","name":"PRAGUE HLAVNI NADRAZI (Czech Republic)","location":{"type":"location","longitude":14.435274,"latitude":50.081386}},"destination":{"type":"station","id":"5613206","name":"BRATISLAVA HLAVNA STANICA (Slovakia)","location":{"type":"location","longitude":17.105555,"latitude":48.158054}},"departure":"2019-06-10T11:50:00.000+02:00","arrival":"2019-06-10T15:50:00.000+02:00","operator":"interrail","mode":"train","public":true,"line":{"type":"line","id":"ec-279","name":"EC   279","mode":"train","public":true},"id":"5457076-2019-06-10t11-50-00-000-02-00-5613206-2019-06-10t15-50-00-000-02-00-ec-279"}}],"ZAGREB GLAVNI KOL. (Croatia)":[{"to":"WIEN MEIDLING (Austria)","byTrip":{"origin":{"type":"station","id":"8103107","name":"WIEN MEIDLING (Austria)","location":{"type":"location","longitude":16.333058,"latitude":48.174442}},"destination":{"type":"station","id":"7872480","name":"ZAGREB GLAVNI KOL. (Croatia)","location":{"type":"location","longitude":15.978892,"latitude":45.804445}},"departure":"2019-06-10T16:05:00.000+02:00","arrival":"2019-06-10T22:41:00.000+02:00","operator":"interrail","mode":"train","public":true,"line":{"type":"line","id":"ec-1259","name":"EC  1259","mode":"train","public":true},"id":"8103107-2019-06-10t16-05-00-000-02-00-7872480-2019-06-10t22-41-00-000-02-00-ec-1259"}}],"BUCURESTI NORD (Romania)":[{"to":"WIEN HBF (Austria)","byTrip":{"origin":{"type":"station","id":"8101003","name":"WIEN HBF (Austria)","location":{"type":"location","longitude":16.375829,"latitude":48.185004}},"destination":{"type":"station","id":"5310017","name":"BUCURESTI NORD (Romania)","location":{"type":"location","longitude":26.074165,"latitude":44.44639}},"departure":"2019-06-10T19:42:00.000+02:00","arrival":"2019-06-11T16:06:00.000+02:00","operator":"interrail","mode":"train","public":true,"line":{"type":"line","id":"nt-347","name":"NT   347","mode":"train","public":true},"id":"8101003-2019-06-10t19-42-00-000-02-00-5310017-2019-06-11t16-06-00-000-02-00-nt-347"}},{"to":"BUDAPEST-KELETI (Hungary)","byTrip":{"origin":{"type":"station","id":"5510017","name":"BUDAPEST-KELETI (Hungary)","location":{"type":"location","longitude":19.085241,"latitude":47.500628}},"destination":{"type":"station","id":"5310017","name":"BUCURESTI NORD (Romania)","location":{"type":"location","longitude":26.074165,"latitude":44.44639}},"departure":"2019-06-10T23:10:00.000+02:00","arrival":"2019-06-11T16:06:00.000+02:00","operator":"interrail","mode":"train","public":true,"line":{"type":"line","id":"nt-347","name":"NT   347","mode":"train","public":true},"id":"5510017-2019-06-10t23-10-00-000-02-00-5310017-2019-06-11t16-06-00-000-02-00-nt-347"}}],"MADRID-PUERTA DE ATOCHA (Spain)":[{"to":"BARCELONA-SANTS (Spain)","byTrip":{"origin":{"type":"station","id":"7160000","name":"MADRID-PUERTA DE ATOCHA (Spain)","location":{"type":"location","longitude":-3.690835,"latitude":40.406386}},"destination":{"type":"station","id":"7171801","name":"BARCELONA-SANTS (Spain)","location":{"type":"location","longitude":2.140556,"latitude":41.379442}},"departure":"2019-06-10T14:30:00.000+02:00","arrival":"2019-06-10T17:21:00.000+02:00","operator":"interrail","mode":"train","public":true,"line":{"type":"line","id":"ave-3143","name":"AVE 3143","mode":"train","public":true},"id":"7160000-2019-06-10t14-30-00-000-02-00-7171801-2019-06-10t17-21-00-000-02-00-ave-3143"}}],"BARCELONA-SANTS (Spain)":[{"to":"MADRID-PUERTA DE ATOCHA (Spain)","byTrip":{"origin":{"type":"station","id":"7160000","name":"MADRID-PUERTA DE ATOCHA (Spain)","location":{"type":"location","longitude":-3.690835,"latitude":40.406386}},"destination":{"type":"station","id":"7171801","name":"BARCELONA-SANTS (Spain)","location":{"type":"location","longitude":2.140556,"latitude":41.379442}},"departure":"2019-06-10T14:30:00.000+02:00","arrival":"2019-06-10T17:21:00.000+02:00","operator":"interrail","mode":"train","public":true,"line":{"type":"line","id":"ave-3143","name":"AVE 3143","mode":"train","public":true},"id":"7160000-2019-06-10t14-30-00-000-02-00-7171801-2019-06-10t17-21-00-000-02-00-ave-3143"}},{"to":"TOULOUSE MATABIAU (France)","byTrip":{"origin":{"type":"station","id":"7171801","name":"BARCELONA-SANTS (Spain)","location":{"type":"location","longitude":2.140556,"latitude":41.379442}},"destination":{"type":"station","id":"8761100","name":"TOULOUSE MATABIAU (France)","location":{"type":"location","longitude":1.452504,"latitude":43.616111}},"departure":"2019-06-10T18:30:00.000+02:00","arrival":"2019-06-10T21:42:00.000+02:00","operator":"interrail","mode":"train","public":true,"line":{"type":"line","id":"rsc-9726","name":"RSC 9726","mode":"train","public":true},"id":"7171801-2019-06-10t18-30-00-000-02-00-8761100-2019-06-10t21-42-00-000-02-00-rsc-9726"}},{"to":"LYON PART DIEU (France)","byTrip":{"origin":{"type":"station","id":"7171801","name":"BARCELONA-SANTS (Spain)","location":{"type":"location","longitude":2.140556,"latitude":41.379442}},"destination":{"type":"station","id":"8772319","name":"LYON PART DIEU (France)","location":{"type":"location","longitude":4.860279,"latitude":45.760281}},"departure":"2019-06-11T08:25:00.000+02:00","arrival":"2019-06-11T13:20:00.000+02:00","operator":"interrail","mode":"train","public":true,"line":{"type":"line","id":"rsc-9736","name":"RSC 9736","mode":"train","public":true},"id":"7171801-2019-06-11t08-25-00-000-02-00-8772319-2019-06-11t13-20-00-000-02-00-rsc-9736"}}],"BUDAPEST-KELETI (Hungary)":[{"to":"WARSZAWA CENTRALNA (Poland)","byTrip":{"origin":{"type":"station","id":"5510017","name":"BUDAPEST-KELETI (Hungary)","location":{"type":"location","longitude":19.085241,"latitude":47.500628}},"destination":{"type":"station","id":"5103360","name":"WARSZAWA CENTRALNA (Poland)","location":{"type":"location","longitude":21.002775,"latitude":52.228613}},"departure":"2019-06-10T19:25:00.000+02:00","arrival":"2019-06-11T09:06:00.000+02:00","operator":"interrail","mode":"train","public":true,"line":{"type":"line","id":"en-476","name":"EN   476","mode":"train","public":true},"id":"5510017-2019-06-10t19-25-00-000-02-00-5103360-2019-06-11t09-06-00-000-02-00-en-476"}},{"to":"BUCURESTI NORD (Romania)","byTrip":{"origin":{"type":"station","id":"5510017","name":"BUDAPEST-KELETI (Hungary)","location":{"type":"location","longitude":19.085241,"latitude":47.500628}},"destination":{"type":"station","id":"5310017","name":"BUCURESTI NORD (Romania)","location":{"type":"location","longitude":26.074165,"latitude":44.44639}},"departure":"2019-06-10T23:10:00.000+02:00","arrival":"2019-06-11T16:06:00.000+02:00","operator":"interrail","mode":"train","public":true,"line":{"type":"line","id":"nt-347","name":"NT   347","mode":"train","public":true},"id":"5510017-2019-06-10t23-10-00-000-02-00-5310017-2019-06-11t16-06-00-000-02-00-nt-347"}},{"to":"KIEV-PASSAJIRSKII (Ukraine)","byTrip":{"origin":{"type":"station","id":"5510017","name":"BUDAPEST-KELETI (Hungary)","location":{"type":"location","longitude":19.085241,"latitude":47.500628}},"destination":{"type":"station","id":"2232030","name":"KIEV-PASSAJIRSKII (Ukraine)","location":{"type":"location","longitude":30.513973,"latitude":50.434357}},"departure":"2019-06-10T19:40:00.000+02:00","arrival":"2019-06-11T17:14:00.000+02:00","operator":"interrail","mode":"train","public":true,"line":{"type":"line","id":"ft-40147","name":"FT 40147","mode":"train","public":true},"id":"5510017-2019-06-10t19-40-00-000-02-00-2232030-2019-06-11t17-14-00-000-02-00-ft-40147"}},{"to":"KRAKOW GLOWNY (Poland)","byTrip":{"origin":{"type":"station","id":"5510017","name":"BUDAPEST-KELETI (Hungary)","location":{"type":"location","longitude":19.085241,"latitude":47.500628}},"destination":{"type":"station","id":"5108041","name":"KRAKOW GLOWNY (Poland)","location":{"type":"location","longitude":19.947774,"latitude":50.065835}},"departure":"2019-06-10T19:25:00.000+02:00","arrival":"2019-06-11T06:15:00.000+02:00","operator":"interrail","mode":"train","public":true,"line":{"type":"line","id":"en-476","name":"EN   476","mode":"train","public":true},"id":"5510017-2019-06-10t19-25-00-000-02-00-5108041-2019-06-11t06-15-00-000-02-00-en-476"}}],"TORINO PORTA SUSA (Italy)":[{"to":"NAPOLI CENTRALE (Italy)","byTrip":{"origin":{"type":"station","id":"8300035","name":"TORINO PORTA SUSA (Italy)","location":{"type":"location","longitude":7.666945,"latitude":45.07417}},"destination":{"type":"station","id":"8309218","name":"NAPOLI CENTRALE (Italy)","location":{"type":"location","longitude":14.272776,"latitude":40.85306}},"departure":"2019-06-10T12:00:00.000+02:00","arrival":"2019-06-10T17:13:00.000+02:00","operator":"interrail","mode":"train","public":true,"line":{"type":"line","id":"fr-9635","name":"FR  9635","mode":"train","public":true},"id":"8300035-2019-06-10t12-00-00-000-02-00-8309218-2019-06-10t17-13-00-000-02-00-fr-9635"}},{"to":"MILANO CENTRALE (Italy)","byTrip":{"origin":{"type":"station","id":"8300035","name":"TORINO PORTA SUSA (Italy)","location":{"type":"location","longitude":7.666945,"latitude":45.07417}},"destination":{"type":"station","id":"8301700","name":"MILANO CENTRALE (Italy)","location":{"type":"location","longitude":9.204163,"latitude":45.486388}},"departure":"2019-06-10T10:43:00.000+02:00","arrival":"2019-06-10T11:33:00.000+02:00","operator":"interrail","mode":"train","public":true,"line":{"type":"line","id":"fr-9723","name":"FR  9723","mode":"train","public":true},"id":"8300035-2019-06-10t10-43-00-000-02-00-8301700-2019-06-10t11-33-00-000-02-00-fr-9723"}}],"NAPOLI CENTRALE (Italy)":[{"to":"TORINO PORTA SUSA (Italy)","byTrip":{"origin":{"type":"station","id":"8300035","name":"TORINO PORTA SUSA (Italy)","location":{"type":"location","longitude":7.666945,"latitude":45.07417}},"destination":{"type":"station","id":"8309218","name":"NAPOLI CENTRALE (Italy)","location":{"type":"location","longitude":14.272776,"latitude":40.85306}},"departure":"2019-06-10T12:00:00.000+02:00","arrival":"2019-06-10T17:13:00.000+02:00","operator":"interrail","mode":"train","public":true,"line":{"type":"line","id":"fr-9635","name":"FR  9635","mode":"train","public":true},"id":"8300035-2019-06-10t12-00-00-000-02-00-8309218-2019-06-10t17-13-00-000-02-00-fr-9635"}}],"VOLGOGRAD 1 (Russia)":[{"to":"NIJNII NOVGOROD MOSKOV (Russia)","byTrip":{"origin":{"type":"station","id":"2061000","name":"VOLGOGRAD 1 (Russia)","location":{"type":"location","longitude":44.512848,"latitude":48.712428}},"destination":{"type":"station","id":"2026020","name":"NIJNII NOVGOROD MOSKOV (Russia)","location":{"type":"location","longitude":43.94357,"latitude":56.321689}},"departure":"2019-06-11T11:50:00.000+02:00","arrival":"2019-06-12T14:53:00.000+02:00","operator":"interrail","mode":"train","public":true,"line":{"type":"line","id":"nt-340sj","name":"NT 340SJ","mode":"train","public":true},"id":"2061000-2019-06-11t11-50-00-000-02-00-2026020-2019-06-12t14-53-00-000-02-00-nt-340sj"}},{"to":"CHELIABINSK-GLAVNYI (Russia)","byTrip":{"origin":{"type":"station","id":"2061000","name":"VOLGOGRAD 1 (Russia)","location":{"type":"location","longitude":44.512848,"latitude":48.712428}},"destination":{"type":"station","id":"2080000","name":"CHELIABINSK-GLAVNYI (Russia)","location":{"type":"location","longitude":61.415292,"latitude":55.139527}},"departure":"2019-06-11T09:24:00.000+02:00","arrival":"2019-06-13T03:00:00.000+02:00","operator":"interrail","mode":"train","public":true,"line":{"type":"line","id":"nt-344sj","name":"NT 344SJ","mode":"train","public":true},"id":"2061000-2019-06-11t09-24-00-000-02-00-2080000-2019-06-13t03-00-00-000-02-00-nt-344sj"}},{"to":"ULIANOVSK CENTR (Russia)","byTrip":{"origin":{"type":"station","id":"2061000","name":"VOLGOGRAD 1 (Russia)","location":{"type":"location","longitude":44.512848,"latitude":48.712428}},"destination":{"type":"station","id":"2064480","name":"ULIANOVSK CENTR (Russia)","location":{"type":"location","longitude":48.322449,"latitude":54.27205}},"departure":"2019-06-10T15:58:00.000+02:00","arrival":"2019-06-11T08:29:00.000+02:00","operator":"interrail","mode":"train","public":true,"line":{"type":"line","id":"nt-45sj","name":"NT  45SJ","mode":"train","public":true},"id":"2061000-2019-06-10t15-58-00-000-02-00-2064480-2019-06-11t08-29-00-000-02-00-nt-45sj"}},{"to":"KRASNODAR 1 (Russia)","byTrip":{"origin":{"type":"station","id":"2061000","name":"VOLGOGRAD 1 (Russia)","location":{"type":"location","longitude":44.512848,"latitude":48.712428}},"destination":{"type":"station","id":"2052440","name":"KRASNODAR 1 (Russia)","location":{"type":"location","longitude":39.156041,"latitude":45.517131}},"departure":"2019-06-10T16:54:00.000+02:00","arrival":"2019-06-11T05:18:00.000+02:00","operator":"interrail","mode":"train","public":true,"line":{"type":"line","id":"nt-14zh","name":"NT  14ZH","mode":"train","public":true},"id":"2061000-2019-06-10t16-54-00-000-02-00-2052440-2019-06-11t05-18-00-000-02-00-nt-14zh"}}],"NIJNII NOVGOROD MOSKOV (Russia)":[{"to":"VOLGOGRAD 1 (Russia)","byTrip":{"origin":{"type":"station","id":"2061000","name":"VOLGOGRAD 1 (Russia)","location":{"type":"location","longitude":44.512848,"latitude":48.712428}},"destination":{"type":"station","id":"2026020","name":"NIJNII NOVGOROD MOSKOV (Russia)","location":{"type":"location","longitude":43.94357,"latitude":56.321689}},"departure":"2019-06-11T11:50:00.000+02:00","arrival":"2019-06-12T14:53:00.000+02:00","operator":"interrail","mode":"train","public":true,"line":{"type":"line","id":"nt-340sj","name":"NT 340SJ","mode":"train","public":true},"id":"2061000-2019-06-11t11-50-00-000-02-00-2026020-2019-06-12t14-53-00-000-02-00-nt-340sj"}},{"to":"SARATOV 1 PASS (Russia)","byTrip":{"origin":{"type":"station","id":"2062000","name":"SARATOV 1 PASS (Russia)","location":{"type":"location","longitude":46.022199,"latitude":51.537846}},"destination":{"type":"station","id":"2026020","name":"NIJNII NOVGOROD MOSKOV (Russia)","location":{"type":"location","longitude":43.94357,"latitude":56.321689}},"departure":"2019-06-11T20:01:00.000+02:00","arrival":"2019-06-12T14:53:00.000+02:00","operator":"interrail","mode":"train","public":true,"line":{"type":"line","id":"nt-340sj","name":"NT 340SJ","mode":"train","public":true},"id":"2062000-2019-06-11t20-01-00-000-02-00-2026020-2019-06-12t14-53-00-000-02-00-nt-340sj"}},{"to":"SAMARA (Russia)","byTrip":{"origin":{"type":"station","id":"2065790","name":"SAMARA (Russia)","location":{"type":"location","longitude":50.174326,"latitude":53.12686}},"destination":{"type":"station","id":"2026020","name":"NIJNII NOVGOROD MOSKOV (Russia)","location":{"type":"location","longitude":43.94357,"latitude":56.321689}},"departure":"2019-06-10T20:51:00.000+02:00","arrival":"2019-06-11T13:12:00.000+02:00","operator":"interrail","mode":"train","public":true,"line":{"type":"line","id":"nt-337ji","name":"NT 337JI","mode":"train","public":true},"id":"2065790-2019-06-10t20-51-00-000-02-00-2026020-2019-06-11t13-12-00-000-02-00-nt-337ji"}},{"to":"KAZAN (Russia)","byTrip":{"origin":{"type":"station","id":"2026020","name":"NIJNII NOVGOROD MOSKOV (Russia)","location":{"type":"location","longitude":43.94357,"latitude":56.321689}},"destination":{"type":"station","id":"2025030","name":"KAZAN (Russia)","location":{"type":"location","longitude":49.098982,"latitude":55.78879}},"departure":"2019-06-10T20:48:00.000+02:00","arrival":"2019-06-11T05:18:00.000+02:00","operator":"interrail","mode":"train","public":true,"line":{"type":"line","id":"nt-51gj","name":"NT  51GJ","mode":"train","public":true},"id":"2026020-2019-06-10t20-48-00-000-02-00-2025030-2019-06-11t05-18-00-000-02-00-nt-51gj"}},{"to":"OMSK PASS (Russia)","byTrip":{"origin":{"type":"station","id":"2026020","name":"NIJNII NOVGOROD MOSKOV (Russia)","location":{"type":"location","longitude":43.94357,"latitude":56.321689}},"destination":{"type":"station","id":"2083070","name":"OMSK PASS (Russia)","location":{"type":"location","longitude":73.357767,"latitude":54.937997}},"departure":"2019-06-10T23:12:00.000+02:00","arrival":"2019-06-12T07:46:00.000+02:00","operator":"interrail","mode":"train","public":true,"line":{"type":"line","id":"nt-92ij","name":"NT  92IJ","mode":"train","public":true},"id":"2026020-2019-06-10t23-12-00-000-02-00-2083070-2019-06-12t07-46-00-000-02-00-nt-92ij"}},{"to":"CHELIABINSK-GLAVNYI (Russia)","byTrip":{"origin":{"type":"station","id":"2026020","name":"NIJNII NOVGOROD MOSKOV (Russia)","location":{"type":"location","longitude":43.94357,"latitude":56.321689}},"destination":{"type":"station","id":"2080000","name":"CHELIABINSK-GLAVNYI (Russia)","location":{"type":"location","longitude":61.415292,"latitude":55.139527}},"departure":"2019-06-12T04:40:00.000+02:00","arrival":"2019-06-13T07:25:00.000+02:00","operator":"interrail","mode":"train","public":true,"line":{"type":"line","id":"nt-145aj","name":"NT 145AJ","mode":"train","public":true},"id":"2026020-2019-06-12t04-40-00-000-02-00-2080000-2019-06-13t07-25-00-000-02-00-nt-145aj"}},{"to":"KRASNODAR 1 (Russia)","byTrip":{"origin":{"type":"station","id":"2026020","name":"NIJNII NOVGOROD MOSKOV (Russia)","location":{"type":"location","longitude":43.94357,"latitude":56.321689}},"destination":{"type":"station","id":"2052440","name":"KRASNODAR 1 (Russia)","location":{"type":"location","longitude":39.156041,"latitude":45.517131}},"departure":"2019-06-10T20:18:00.000+02:00","arrival":"2019-06-12T02:48:00.000+02:00","operator":"interrail","mode":"train","public":true,"line":{"type":"line","id":"nt-87gj","name":"NT  87GJ","mode":"train","public":true},"id":"2026020-2019-06-10t20-18-00-000-02-00-2052440-2019-06-12t02-48-00-000-02-00-nt-87gj"}}],"SARATOV 1 PASS (Russia)":[{"to":"UFA (Russia)","byTrip":{"origin":{"type":"station","id":"2065450","name":"UFA (Russia)","location":{"type":"location","longitude":55.936366,"latitude":54.810683}},"destination":{"type":"station","id":"2062000","name":"SARATOV 1 PASS (Russia)","location":{"type":"location","longitude":46.022199,"latitude":51.537846}},"departure":"2019-06-11T13:24:00.000+02:00","arrival":"2019-06-12T07:47:00.000+02:00","operator":"interrail","mode":"train","public":true,"line":{"type":"line","id":"nt-147ej","name":"NT 147EJ","mode":"train","public":true},"id":"2065450-2019-06-11t13-24-00-000-02-00-2062000-2019-06-12t07-47-00-000-02-00-nt-147ej"}},{"to":"SAMARA (Russia)","byTrip":{"origin":{"type":"station","id":"2062000","name":"SARATOV 1 PASS (Russia)","location":{"type":"location","longitude":46.022199,"latitude":51.537846}},"destination":{"type":"station","id":"2065790","name":"SAMARA (Russia)","location":{"type":"location","longitude":50.174326,"latitude":53.12686}},"departure":"2019-06-10T15:57:00.000+02:00","arrival":"2019-06-11T00:53:00.000+02:00","operator":"interrail","mode":"train","public":true,"line":{"type":"line","id":"nt-373sj","name":"NT 373SJ","mode":"train","public":true},"id":"2062000-2019-06-10t15-57-00-000-02-00-2065790-2019-06-11t00-53-00-000-02-00-nt-373sj"}},{"to":"NIJNII NOVGOROD MOSKOV (Russia)","byTrip":{"origin":{"type":"station","id":"2062000","name":"SARATOV 1 PASS (Russia)","location":{"type":"location","longitude":46.022199,"latitude":51.537846}},"destination":{"type":"station","id":"2026020","name":"NIJNII NOVGOROD MOSKOV (Russia)","location":{"type":"location","longitude":43.94357,"latitude":56.321689}},"departure":"2019-06-11T20:01:00.000+02:00","arrival":"2019-06-12T14:53:00.000+02:00","operator":"interrail","mode":"train","public":true,"line":{"type":"line","id":"nt-340sj","name":"NT 340SJ","mode":"train","public":true},"id":"2062000-2019-06-11t20-01-00-000-02-00-2026020-2019-06-12t14-53-00-000-02-00-nt-340sj"}},{"to":"MOSKVA KAZANSKAIA (Russia)","byTrip":{"origin":{"type":"station","id":"2062000","name":"SARATOV 1 PASS (Russia)","location":{"type":"location","longitude":46.022199,"latitude":51.537846}},"destination":{"type":"station","id":"2019390","name":"MOSKVA KAZANSKAIA (Russia)","location":{"type":"location","longitude":37.657602,"latitude":55.773778}},"departure":"2019-06-10T13:41:00.000+02:00","arrival":"2019-06-11T05:30:00.000+02:00","operator":"interrail","mode":"train","public":true,"line":{"type":"line","id":"nt-85sj","name":"NT  85SJ","mode":"train","public":true},"id":"2062000-2019-06-10t13-41-00-000-02-00-2019390-2019-06-11t05-30-00-000-02-00-nt-85sj"}}],"MOSKVA IAROSLAVSKAIA (Russia)":[{"to":"ROSTOV-IAROSLAVSKII (Russia)","byTrip":{"origin":{"type":"station","id":"2031430","name":"ROSTOV-IAROSLAVSKII (Russia)","location":{"type":"location","longitude":39.485361,"latitude":57.386938}},"destination":{"type":"station","id":"2019550","name":"MOSKVA IAROSLAVSKAIA (Russia)","location":{"type":"location","longitude":37.655948,"latitude":55.776179}},"departure":"2019-06-10T12:34:00.000+02:00","arrival":"2019-06-10T15:43:00.000+02:00","operator":"interrail","mode":"train","public":true,"line":{"type":"line","id":"nt-375ja","name":"NT 375JA","mode":"train","public":true},"id":"2031430-2019-06-10t12-34-00-000-02-00-2019550-2019-06-10t15-43-00-000-02-00-nt-375ja"}},{"to":"YAROSLAVL (Russia)","byTrip":{"origin":{"type":"station","id":"2031010","name":"YAROSLAVL (Russia)","location":{"type":"location","longitude":39.81184,"latitude":57.566776}},"destination":{"type":"station","id":"2019550","name":"MOSKVA IAROSLAVSKAIA (Russia)","location":{"type":"location","longitude":37.655948,"latitude":55.776179}},"departure":"2019-06-11T01:48:00.000+02:00","arrival":"2019-06-11T05:43:00.000+02:00","operator":"interrail","mode":"train","public":true,"line":{"type":"line","id":"nt-147ja","name":"NT 147JA","mode":"train","public":true},"id":"2031010-2019-06-11t01-48-00-000-02-00-2019550-2019-06-11t05-43-00-000-02-00-nt-147ja"}}],"NOVOSIBIRSK GL (Russia)":[{"to":"ROSTOV-IAROSLAVSKII (Russia)","byTrip":{"origin":{"type":"station","id":"2031430","name":"ROSTOV-IAROSLAVSKII (Russia)","location":{"type":"location","longitude":39.485361,"latitude":57.386938}},"destination":{"type":"station","id":"2085060","name":"NOVOSIBIRSK GL (Russia)","location":{"type":"location","longitude":82.863832,"latitude":55.06124}},"departure":"2019-06-10T17:00:00.000+02:00","arrival":"2019-06-12T16:11:00.000+02:00","operator":"interrail","mode":"train","public":true,"line":{"type":"line","id":"nt-70ch","name":"NT  70CH","mode":"train","public":true},"id":"2031430-2019-06-10t17-00-00-000-02-00-2085060-2019-06-12t16-11-00-000-02-00-nt-70ch"}},{"to":"MOSKVA KAZANSKAIA (Russia)","byTrip":{"origin":{"type":"station","id":"2019390","name":"MOSKVA KAZANSKAIA (Russia)","location":{"type":"location","longitude":37.657602,"latitude":55.773778}},"destination":{"type":"station","id":"2085060","name":"NOVOSIBIRSK GL (Russia)","location":{"type":"location","longitude":82.863832,"latitude":55.06124}},"departure":"2019-06-10T13:10:00.000+02:00","arrival":"2019-06-12T14:06:00.000+02:00","operator":"interrail","mode":"train","public":true,"line":{"type":"line","id":"nt-82ij","name":"NT  82IJ","mode":"train","public":true},"id":"2019390-2019-06-10t13-10-00-000-02-00-2085060-2019-06-12t14-06-00-000-02-00-nt-82ij"}},{"to":"KAZAN (Russia)","byTrip":{"origin":{"type":"station","id":"2025030","name":"KAZAN (Russia)","location":{"type":"location","longitude":49.098982,"latitude":55.78879}},"destination":{"type":"station","id":"2085060","name":"NOVOSIBIRSK GL (Russia)","location":{"type":"location","longitude":82.863832,"latitude":55.06124}},"departure":"2019-06-10T15:55:00.000+02:00","arrival":"2019-06-12T04:59:00.000+02:00","operator":"interrail","mode":"train","public":true,"line":{"type":"line","id":"nt-140sj","name":"NT 140SJ","mode":"train","public":true},"id":"2025030-2019-06-10t15-55-00-000-02-00-2085060-2019-06-12t04-59-00-000-02-00-nt-140sj"}},{"to":"EKATERINBURG-PASSAJIRS (Russia)","byTrip":{"origin":{"type":"station","id":"2078050","name":"EKATERINBURG-PASSAJIRS (Russia)","location":{"type":"location","longitude":60.604653,"latitude":56.867011}},"destination":{"type":"station","id":"2085060","name":"NOVOSIBIRSK GL (Russia)","location":{"type":"location","longitude":82.863832,"latitude":55.06124}},"departure":"2019-06-10T16:42:00.000+02:00","arrival":"2019-06-11T14:06:00.000+02:00","operator":"interrail","mode":"train","public":true,"line":{"type":"line","id":"nt-76ei","name":"NT  76EI","mode":"train","public":true},"id":"2078050-2019-06-10t16-42-00-000-02-00-2085060-2019-06-11t14-06-00-000-02-00-nt-76ei"}},{"to":"OMSK PASS (Russia)","byTrip":{"origin":{"type":"station","id":"2083070","name":"OMSK PASS (Russia)","location":{"type":"location","longitude":73.357767,"latitude":54.937997}},"destination":{"type":"station","id":"2085060","name":"NOVOSIBIRSK GL (Russia)","location":{"type":"location","longitude":82.863832,"latitude":55.06124}},"departure":"2019-06-10T12:01:00.000+02:00","arrival":"2019-06-10T19:46:00.000+02:00","operator":"interrail","mode":"train","public":true,"line":{"type":"line","id":"nt-118nj","name":"NT 118NJ","mode":"train","public":true},"id":"2083070-2019-06-10t12-01-00-000-02-00-2085060-2019-06-10t19-46-00-000-02-00-nt-118nj"}},{"to":"KRASNOIARSK (Russia)","byTrip":{"origin":{"type":"station","id":"2085060","name":"NOVOSIBIRSK GL (Russia)","location":{"type":"location","longitude":82.863832,"latitude":55.06124}},"destination":{"type":"station","id":"2089000","name":"KRASNOIARSK (Russia)","location":{"type":"location","longitude":92.828654,"latitude":56.006096}},"departure":"2019-06-10T14:56:00.000+02:00","arrival":"2019-06-11T02:40:00.000+02:00","operator":"interrail","mode":"train","public":true,"line":{"type":"line","id":"nt-82ij","name":"NT  82IJ","mode":"train","public":true},"id":"2085060-2019-06-10t14-56-00-000-02-00-2089000-2019-06-11t02-40-00-000-02-00-nt-82ij"}}],"PERM 2 (Russia)":[{"to":"KRASNOIARSK (Russia)","byTrip":{"origin":{"type":"station","id":"2076110","name":"PERM 2 (Russia)","location":{"type":"location","longitude":56.181745,"latitude":58.004622}},"destination":{"type":"station","id":"2089000","name":"KRASNOIARSK (Russia)","location":{"type":"location","longitude":92.828654,"latitude":56.006096}},"departure":"2019-06-10T13:48:00.000+02:00","arrival":"2019-06-12T04:45:00.000+02:00","operator":"interrail","mode":"train","public":true,"line":{"type":"line","id":"nt-56yj","name":"NT  56YJ","mode":"train","public":true},"id":"2076110-2019-06-10t13-48-00-000-02-00-2089000-2019-06-12t04-45-00-000-02-00-nt-56yj"}}],"KRASNOIARSK (Russia)":[{"to":"PERM 2 (Russia)","byTrip":{"origin":{"type":"station","id":"2076110","name":"PERM 2 (Russia)","location":{"type":"location","longitude":56.181745,"latitude":58.004622}},"destination":{"type":"station","id":"2089000","name":"KRASNOIARSK (Russia)","location":{"type":"location","longitude":92.828654,"latitude":56.006096}},"departure":"2019-06-10T13:48:00.000+02:00","arrival":"2019-06-12T04:45:00.000+02:00","operator":"interrail","mode":"train","public":true,"line":{"type":"line","id":"nt-56yj","name":"NT  56YJ","mode":"train","public":true},"id":"2076110-2019-06-10t13-48-00-000-02-00-2089000-2019-06-12t04-45-00-000-02-00-nt-56yj"}},{"to":"KAZAN (Russia)","byTrip":{"origin":{"type":"station","id":"2025030","name":"KAZAN (Russia)","location":{"type":"location","longitude":49.098982,"latitude":55.78879}},"destination":{"type":"station","id":"2089000","name":"KRASNOIARSK (Russia)","location":{"type":"location","longitude":92.828654,"latitude":56.006096}},"departure":"2019-06-11T02:13:00.000+02:00","arrival":"2019-06-13T02:40:00.000+02:00","operator":"interrail","mode":"train","public":true,"line":{"type":"line","id":"nt-82ij","name":"NT  82IJ","mode":"train","public":true},"id":"2025030-2019-06-11t02-13-00-000-02-00-2089000-2019-06-13t02-40-00-000-02-00-nt-82ij"}},{"to":"NOVOSIBIRSK GL (Russia)","byTrip":{"origin":{"type":"station","id":"2085060","name":"NOVOSIBIRSK GL (Russia)","location":{"type":"location","longitude":82.863832,"latitude":55.06124}},"destination":{"type":"station","id":"2089000","name":"KRASNOIARSK (Russia)","location":{"type":"location","longitude":92.828654,"latitude":56.006096}},"departure":"2019-06-10T14:56:00.000+02:00","arrival":"2019-06-11T02:40:00.000+02:00","operator":"interrail","mode":"train","public":true,"line":{"type":"line","id":"nt-82ij","name":"NT  82IJ","mode":"train","public":true},"id":"2085060-2019-06-10t14-56-00-000-02-00-2089000-2019-06-11t02-40-00-000-02-00-nt-82ij"}},{"to":"YAROSLAVL (Russia)","byTrip":{"origin":{"type":"station","id":"2031010","name":"YAROSLAVL (Russia)","location":{"type":"location","longitude":39.81184,"latitude":57.566776}},"destination":{"type":"station","id":"2089000","name":"KRASNOIARSK (Russia)","location":{"type":"location","longitude":92.828654,"latitude":56.006096}},"departure":"2019-06-11T04:48:00.000+02:00","arrival":"2019-06-13T20:21:00.000+02:00","operator":"interrail","mode":"train","public":true,"line":{"type":"line","id":"nt-100ei","name":"NT 100EI","mode":"train","public":true},"id":"2031010-2019-06-11t04-48-00-000-02-00-2089000-2019-06-13t20-21-00-000-02-00-nt-100ei"}}],"OMSK PASS (Russia)":[{"to":"NIJNII NOVGOROD MOSKOV (Russia)","byTrip":{"origin":{"type":"station","id":"2026020","name":"NIJNII NOVGOROD MOSKOV (Russia)","location":{"type":"location","longitude":43.94357,"latitude":56.321689}},"destination":{"type":"station","id":"2083070","name":"OMSK PASS (Russia)","location":{"type":"location","longitude":73.357767,"latitude":54.937997}},"departure":"2019-06-10T23:12:00.000+02:00","arrival":"2019-06-12T07:46:00.000+02:00","operator":"interrail","mode":"train","public":true,"line":{"type":"line","id":"nt-92ij","name":"NT  92IJ","mode":"train","public":true},"id":"2026020-2019-06-10t23-12-00-000-02-00-2083070-2019-06-12t07-46-00-000-02-00-nt-92ij"}},{"to":"MOSKVA KAZANSKAIA (Russia)","byTrip":{"origin":{"type":"station","id":"2019390","name":"MOSKVA KAZANSKAIA (Russia)","location":{"type":"location","longitude":37.657602,"latitude":55.773778}},"destination":{"type":"station","id":"2083070","name":"OMSK PASS (Russia)","location":{"type":"location","longitude":73.357767,"latitude":54.937997}},"departure":"2019-06-10T13:10:00.000+02:00","arrival":"2019-06-12T05:56:00.000+02:00","operator":"interrail","mode":"train","public":true,"line":{"type":"line","id":"nt-82ij","name":"NT  82IJ","mode":"train","public":true},"id":"2019390-2019-06-10t13-10-00-000-02-00-2083070-2019-06-12t05-56-00-000-02-00-nt-82ij"}},{"to":"KAZAN (Russia)","byTrip":{"origin":{"type":"station","id":"2025030","name":"KAZAN (Russia)","location":{"type":"location","longitude":49.098982,"latitude":55.78879}},"destination":{"type":"station","id":"2083070","name":"OMSK PASS (Russia)","location":{"type":"location","longitude":73.357767,"latitude":54.937997}},"departure":"2019-06-10T15:55:00.000+02:00","arrival":"2019-06-11T20:15:00.000+02:00","operator":"interrail","mode":"train","public":true,"line":{"type":"line","id":"nt-140sj","name":"NT 140SJ","mode":"train","public":true},"id":"2025030-2019-06-10t15-55-00-000-02-00-2083070-2019-06-11t20-15-00-000-02-00-nt-140sj"}},{"to":"NOVOSIBIRSK GL (Russia)","byTrip":{"origin":{"type":"station","id":"2083070","name":"OMSK PASS (Russia)","location":{"type":"location","longitude":73.357767,"latitude":54.937997}},"destination":{"type":"station","id":"2085060","name":"NOVOSIBIRSK GL (Russia)","location":{"type":"location","longitude":82.863832,"latitude":55.06124}},"departure":"2019-06-10T12:01:00.000+02:00","arrival":"2019-06-10T19:46:00.000+02:00","operator":"interrail","mode":"train","public":true,"line":{"type":"line","id":"nt-118nj","name":"NT 118NJ","mode":"train","public":true},"id":"2083070-2019-06-10t12-01-00-000-02-00-2085060-2019-06-10t19-46-00-000-02-00-nt-118nj"}}],"KRAKOW GLOWNY (Poland)":[{"to":"WIEN HBF (Austria)","byTrip":{"origin":{"type":"station","id":"8101003","name":"WIEN HBF (Austria)","location":{"type":"location","longitude":16.375829,"latitude":48.185004}},"destination":{"type":"station","id":"5108041","name":"KRAKOW GLOWNY (Poland)","location":{"type":"location","longitude":19.947774,"latitude":50.065835}},"departure":"2019-06-10T22:10:00.000+02:00","arrival":"2019-06-11T06:15:00.000+02:00","operator":"interrail","mode":"train","public":true,"line":{"type":"line","id":"en-40456","name":"EN 40456","mode":"train","public":true},"id":"8101003-2019-06-10t22-10-00-000-02-00-5108041-2019-06-11t06-15-00-000-02-00-en-40456"}},{"to":"BUDAPEST-KELETI (Hungary)","byTrip":{"origin":{"type":"station","id":"5510017","name":"BUDAPEST-KELETI (Hungary)","location":{"type":"location","longitude":19.085241,"latitude":47.500628}},"destination":{"type":"station","id":"5108041","name":"KRAKOW GLOWNY (Poland)","location":{"type":"location","longitude":19.947774,"latitude":50.065835}},"departure":"2019-06-10T19:25:00.000+02:00","arrival":"2019-06-11T06:15:00.000+02:00","operator":"interrail","mode":"train","public":true,"line":{"type":"line","id":"en-476","name":"EN   476","mode":"train","public":true},"id":"5510017-2019-06-10t19-25-00-000-02-00-5108041-2019-06-11t06-15-00-000-02-00-en-476"}},{"to":"WARSZAWA CENTRALNA (Poland)","byTrip":{"origin":{"type":"station","id":"5103360","name":"WARSZAWA CENTRALNA (Poland)","location":{"type":"location","longitude":21.002775,"latitude":52.228613}},"destination":{"type":"station","id":"5108041","name":"KRAKOW GLOWNY (Poland)","location":{"type":"location","longitude":19.947774,"latitude":50.065835}},"departure":"2019-06-10T11:45:00.000+02:00","arrival":"2019-06-10T14:03:00.000+02:00","operator":"interrail","mode":"train","public":true,"line":{"type":"line","id":"eip-8300","name":"EIP 8300","mode":"train","public":true},"id":"5103360-2019-06-10t11-45-00-000-02-00-5108041-2019-06-10t14-03-00-000-02-00-eip-8300"}}],"LODZ WIDZEW (Poland)":[{"to":"WARSZAWA CENTRALNA (Poland)","byTrip":{"origin":{"type":"station","id":"5103360","name":"WARSZAWA CENTRALNA (Poland)","location":{"type":"location","longitude":21.002775,"latitude":52.228613}},"destination":{"type":"station","id":"5104640","name":"LODZ WIDZEW (Poland)","location":{"type":"location","longitude":19.543331,"latitude":51.763052}},"departure":"2019-06-10T11:20:00.000+02:00","arrival":"2019-06-10T12:29:00.000+02:00","operator":"interrail","mode":"train","public":true,"line":{"type":"line","id":"ic-1614","name":"IC  1614","mode":"train","public":true},"id":"5103360-2019-06-10t11-20-00-000-02-00-5104640-2019-06-10t12-29-00-000-02-00-ic-1614"}}],"YAROSLAVL (Russia)":[{"to":"ROSTOV-IAROSLAVSKII (Russia)","byTrip":{"origin":{"type":"station","id":"2031010","name":"YAROSLAVL (Russia)","location":{"type":"location","longitude":39.81184,"latitude":57.566776}},"destination":{"type":"station","id":"2031430","name":"ROSTOV-IAROSLAVSKII (Russia)","location":{"type":"location","longitude":39.485361,"latitude":57.386938}},"departure":"2019-06-11T01:48:00.000+02:00","arrival":"2019-06-11T02:36:00.000+02:00","operator":"interrail","mode":"train","public":true,"line":{"type":"line","id":"nt-147ja","name":"NT 147JA","mode":"train","public":true},"id":"2031010-2019-06-11t01-48-00-000-02-00-2031430-2019-06-11t02-36-00-000-02-00-nt-147ja"}},{"to":"MOSKVA IAROSLAVSKAIA (Russia)","byTrip":{"origin":{"type":"station","id":"2031010","name":"YAROSLAVL (Russia)","location":{"type":"location","longitude":39.81184,"latitude":57.566776}},"destination":{"type":"station","id":"2019550","name":"MOSKVA IAROSLAVSKAIA (Russia)","location":{"type":"location","longitude":37.655948,"latitude":55.776179}},"departure":"2019-06-11T01:48:00.000+02:00","arrival":"2019-06-11T05:43:00.000+02:00","operator":"interrail","mode":"train","public":true,"line":{"type":"line","id":"nt-147ja","name":"NT 147JA","mode":"train","public":true},"id":"2031010-2019-06-11t01-48-00-000-02-00-2019550-2019-06-11t05-43-00-000-02-00-nt-147ja"}},{"to":"EKATERINBURG-PASSAJIRS (Russia)","byTrip":{"origin":{"type":"station","id":"2031010","name":"YAROSLAVL (Russia)","location":{"type":"location","longitude":39.81184,"latitude":57.566776}},"destination":{"type":"station","id":"2078050","name":"EKATERINBURG-PASSAJIRS (Russia)","location":{"type":"location","longitude":60.604653,"latitude":56.867011}},"departure":"2019-06-11T04:48:00.000+02:00","arrival":"2019-06-12T09:16:00.000+02:00","operator":"interrail","mode":"train","public":true,"line":{"type":"line","id":"nt-100ei","name":"NT 100EI","mode":"train","public":true},"id":"2031010-2019-06-11t04-48-00-000-02-00-2078050-2019-06-12t09-16-00-000-02-00-nt-100ei"}},{"to":"KRASNOIARSK (Russia)","byTrip":{"origin":{"type":"station","id":"2031010","name":"YAROSLAVL (Russia)","location":{"type":"location","longitude":39.81184,"latitude":57.566776}},"destination":{"type":"station","id":"2089000","name":"KRASNOIARSK (Russia)","location":{"type":"location","longitude":92.828654,"latitude":56.006096}},"departure":"2019-06-11T04:48:00.000+02:00","arrival":"2019-06-13T20:21:00.000+02:00","operator":"interrail","mode":"train","public":true,"line":{"type":"line","id":"nt-100ei","name":"NT 100EI","mode":"train","public":true},"id":"2031010-2019-06-11t04-48-00-000-02-00-2089000-2019-06-13t20-21-00-000-02-00-nt-100ei"}}],"ULIANOVSK CENTR (Russia)":[{"to":"VOLGOGRAD 1 (Russia)","byTrip":{"origin":{"type":"station","id":"2061000","name":"VOLGOGRAD 1 (Russia)","location":{"type":"location","longitude":44.512848,"latitude":48.712428}},"destination":{"type":"station","id":"2064480","name":"ULIANOVSK CENTR (Russia)","location":{"type":"location","longitude":48.322449,"latitude":54.27205}},"departure":"2019-06-10T15:58:00.000+02:00","arrival":"2019-06-11T08:29:00.000+02:00","operator":"interrail","mode":"train","public":true,"line":{"type":"line","id":"nt-45sj","name":"NT  45SJ","mode":"train","public":true},"id":"2061000-2019-06-10t15-58-00-000-02-00-2064480-2019-06-11t08-29-00-000-02-00-nt-45sj"}},{"to":"UFA (Russia)","byTrip":{"origin":{"type":"station","id":"2064480","name":"ULIANOVSK CENTR (Russia)","location":{"type":"location","longitude":48.322449,"latitude":54.27205}},"destination":{"type":"station","id":"2065450","name":"UFA (Russia)","location":{"type":"location","longitude":55.936366,"latitude":54.810683}},"departure":"2019-06-11T04:01:00.000+02:00","arrival":"2019-06-11T16:47:00.000+02:00","operator":"interrail","mode":"train","public":true,"line":{"type":"line","id":"nt-116ji","name":"NT 116JI","mode":"train","public":true},"id":"2064480-2019-06-11t04-01-00-000-02-00-2065450-2019-06-11t16-47-00-000-02-00-nt-116ji"}},{"to":"EKATERINBURG-PASSAJIRS (Russia)","byTrip":{"origin":{"type":"station","id":"2064480","name":"ULIANOVSK CENTR (Russia)","location":{"type":"location","longitude":48.322449,"latitude":54.27205}},"destination":{"type":"station","id":"2078050","name":"EKATERINBURG-PASSAJIRS (Russia)","location":{"type":"location","longitude":60.604653,"latitude":56.867011}},"departure":"2019-06-10T17:10:00.000+02:00","arrival":"2019-06-11T14:21:00.000+02:00","operator":"interrail","mode":"train","public":true,"line":{"type":"line","id":"nt-105zh","name":"NT 105ZH","mode":"train","public":true},"id":"2064480-2019-06-10t17-10-00-000-02-00-2078050-2019-06-11t14-21-00-000-02-00-nt-105zh"}},{"to":"NABEREJNYE CHELNY (Russia)","byTrip":{"origin":{"type":"station","id":"2064480","name":"ULIANOVSK CENTR (Russia)","location":{"type":"location","longitude":48.322449,"latitude":54.27205}},"destination":{"type":"station","id":"2064850","name":"NABEREJNYE CHELNY (Russia)","location":{"type":"location","longitude":52.373492,"latitude":55.839292}},"departure":"2019-06-10T12:01:00.000+02:00","arrival":"2019-06-10T23:17:00.000+02:00","operator":"interrail","mode":"train","public":true,"line":{"type":"line","id":"nt-354sj","name":"NT 354SJ","mode":"train","public":true},"id":"2064480-2019-06-10t12-01-00-000-02-00-2064850-2019-06-10t23-17-00-000-02-00-nt-354sj"}}],"KRASNODAR 1 (Russia)":[{"to":"VOLGOGRAD 1 (Russia)","byTrip":{"origin":{"type":"station","id":"2061000","name":"VOLGOGRAD 1 (Russia)","location":{"type":"location","longitude":44.512848,"latitude":48.712428}},"destination":{"type":"station","id":"2052440","name":"KRASNODAR 1 (Russia)","location":{"type":"location","longitude":39.156041,"latitude":45.517131}},